origin_airport_code,dest_airport_code,airport_name,latitude,longitude
K01A,K01A,Afognak Lake Airport,58.10944444,-152.9066667
K03A,K03A,Bear Creek Mining Strip,65.54805556,-161.0716667
K04A,K04A,Lik Mining Camp,68.08333333,-163.1666667
K05A,K05A,Little Squaw Airport,67.57,-148.1838889
K06A,K06A,Kizhuyak Bay,57.74527778,-152.8827778
K07A,K07A,Klawock Seaplane Base,55.55472222,-133.1016667
K08A,K08A,Elizabeth Island Airport,59.15694444,-151.8291667
K09A,K09A,Augustin Island,59.36277778,-153.4305556
K1B1,K1B1,Columbia County,42.28888889,-73.71027778
K1B1,K1B1,Columbia County,42.29138889,-73.71027778
K1G4,K1G4,Grand Canyon West,35.99027778,-113.8163889
K1G4,K1G4,Grand Canyon West,35.98611111,-113.8169444
K1G4,K1G4,Grand Canyon West,35.99027778,-113.8163889
K1G4,K1G4,Grand Canyon West,35.98611111,-113.8169444
K1N7,K1N7,Blairstown Airport,40.97111111,-74.9975
K8F3,K8F3,Crosbyton Municipal,33.62388889,-101.2408333
KA01,KA01,Blair Lake,64.36416667,-147.3613889
KA01,KA01,Blair Lake,64.36361111,-147.3638889
KA02,KA02,Deadmans Bay Airport,57.06666667,-153.9377778
KA03,KA03,Hallo Bay Airport,58.4575,-154.0233333
KA04,KA04,Red Lake Airport,57.27722222,-154.3422222
KA05,KA05,Shell Lake Airport,61.96388889,-151.5558333
KA06,KA06,Navigator Airstrip,65.65555556,-165.3563889
KA07,KA07,Roland Norton Memorial Airstrip,66.76583333,-160.1525
KA07,KA07,Roland Norton Memorial,66.76611111,-160.1527778
KA08,KA08,Pillar Bay Airport,56.59805556,-134.2427778
KJOH,KJOH,Johnstone Point Airport,60.48138889,-146.5822222
KA09,KA09,Johnstone Point Airport,60.48222222,-146.5822222
KA09,KA09,Johnstone Point Airport,60.48166667,-146.5841667
KA09,KA09,Johnstone Point Airport,60.48222222,-146.5822222
KA09,KA09,Johnstone Point Airport,60.48166667,-146.5841667
KTLK,KTLK,Tikchik Lodge Airport,59.95555556,-158.4805556
KKTH,KKTH,Tikchik Lodge Airport,59.95555556,-158.4805556
KA11,KA11,Bell Creek Airport,60.78388889,-159.5402778
KA12,KA12,Cinnabar Airport,60.78527778,-158.8644444
KA13,KA13,Mountaintop Mine Airport,61.39027778,-157.9955556
KA14,KA14,Whitebear Airport,61.18888889,-159.8583333
KA15,KA15,Puviaq Airport,70.71861111,-154.3883333
KA15,KA15,Puviaq Airport,70.71555556,-154.4069444
KA16,KA16,Arley Lake Airport,70.74694444,-155.3608333
KA17,KA17,Port Vita Airport,58.06555556,-153.0725
KA18,KA18,Kantishna Airport,63.54166667,-150.9938889
KA18,KA18,Kantishna Airport,63.54111111,-150.995
KA18,KA18,Kantishna Airport,63.54166667,-150.9938889
KA18,KA18,Kantishna Airport,63.54111111,-150.995
KA20,KA20,Alpine Airstrip,70.34416667,-150.9447222
KA21,KA21,Serpentine Airport,65.85138889,-164.7027778
KA22,KA22,Driftwood Bay Airport,53.97277778,-166.8569444
KA23,KA23,Bradley Lake Airport,59.77611111,-151.9636111
KA24,KA24,Chilkat Lake Airport,59.33166667,-135.8966667
KA25,KA25,Nugget Creek Airport,59.28833333,-136.1738889
KA26,KA26,Ivotuk Airstrip,68.48333333,-155.7333333
KA27,KA27,Pogo Mines Airport,64.44,-144.9363889
KA28,KA28,Ayakulik River Airport,57.25388889,-154.4222222
KA29,KA29,Kiluda Bay Airport,57.32305556,-153.1494444
KA30,KA30,Terror Lake Airport,57.96388889,-153.0583333
KA31,KA31,Selief Bay Airport,58.98277778,-153.1833333
KA34,KA34,Laura Lake Airport,58.36194444,-152.3122222
KA36,KA36,Deep Bay Airport,55.56027778,-131.6555556
KA37,KA37,Kako Airport,61.89888889,-161.4380556
KA37,KA37,Kako Airport,61.89888889,-161.4397222
KA38,KA38,Molly Creek Airport,64.09722222,-143.2666667
KA39,KA39,Ptarmigan Lake Airport,61.86611111,-141.1597222
KA40,KA40,Cape Simpson Airport,71.05694444,-154.7283333
KA41,KA41,Kogru River Airport,70.57611111,-152.2711111
KA41,KA41,Kogru River Airport,70.57472222,-152.2588889
KA42,KA42,Teshepkuk Lake Airport,70.35833333,-153.1966667
KA43,KA43,Trident Basin Seaplane Base,57.78083333,-152.3911111
KA45,KA45,Lake Florence Airport,57.81666667,-134.5833333
KA46,KA46,Lake Hasselborg Airport,57.7,-134.2666667
KA47,KA47,Distin Lake Airport,57.61666667,-134.3666667
KA48,KA48,Port Hobron Airport,57.15,-153.15
KA49,KA49,Mooseville Airstrip Airport,70.28444444,-152.2119444
KA50,KA50,Big Bay Airport,58.5625,-152.5961111
KA51,KA51,Wien Lake Airport,64.35277778,-151.275
KA52,KA52,Silver Salmon Creek Airport,59.96388889,-152.6822222
KA53,KA53,Blear Lake Airport,64.33333333,-147.5
KA54,KA54,Cannery Bay Airport,53.68333333,-166.75
KA56,KA56,Johnsons Landing,56.03666667,-160.2661111
KVZK,KVZK,International Seafoods Airport,58.26666667,-157.5333333
KA57,KA57,International Seafoods Airport,58.26666667,-157.5333333
KA58,KA58,Cosna River Airport,64.5,-151.6666667
KA59,KA59,Ivatuk Airport,68.48777778,-155.7575
KA61,KA61,Cape Sarichef AFS,54.58333333,-164.9125
KA61,KA61,Cape Sarichef Airport,54.5825,-164.9144444
KA62,KA62,Taylor Mountain,60.86777778,-157.3919444
KA63,KA63,Coal Creek,65.31111111,-143.1352778
KA63,KA63,Coal Creek,65.31138889,-143.1355556
KA63,KA63,Coal Creek,65.31166667,-143.1341667
KA63,KA63,Coal Creek,65.31138889,-143.1355556
KA63,KA63,Coal Creek,65.31166667,-143.1341667
KA65,KA65,Karluk Portage Airport,57.53833333,-154.1644444
KA66,KA66,Hope Airport,60.90555556,-149.6238889
KA66,KA66,Hope Airport,60.90416667,-149.6238889
KA66,KA66,Hope Airport,60.90722222,-149.6227778
KA66,KA66,Hope Airport,60.90416667,-149.6238889
KA66,KA66,Hope Airport,60.90722222,-149.6227778
KA67,KA67,Viekoda Bay Airport,57.84944444,-153.1152778
KA69,KA69,Cathedral Strip,55.74,-162.1252778
KA70,KA70,Village Islands Airport,57.77416667,-153.5447222
KA71,KA71,Bear Cove Farm,59.73833333,-151.03
KA72,KA72,Chinitna Bay Airport,59.83333333,-152.5847222
KA73,KA73,McKinley National Park,63.7325,-148.9105556
KA74,KA74,Dog Fish Bay,59.24111111,-151.8772222
KA75,KA75,Malina Bay Airport,58.17194444,-152.8941667
KA76,KA76,Red Fox Bay Airport,58.46444444,-152.5930556
KA77,KA77,Shearwater Airport,57.34333333,-152.8972222
KA78,KA78,Lake,71.03,-154.4436111
KA79,KA79,Cape Simpson No. 1,71.50166667,-154.0338889
KA80,KA80,Cape Simpson No. 7,70.57388889,-155.3213889
KA81,KA81,Cape Simpson #1,70.66277778,-154.8366667
KA82,KA82,Nikiski Private Airstrip,60.69027778,-151.2888889
KA83,KA83,Petrof Point Airport,59.37638889,-150.765
KA84,KA84,Denali West Lodge Private,63.75555556,-147.93
KA85,KA85,Big River Airport,61.85944444,-154.2766667
KA87,KA87,Carry Inlet Airport,58.58305556,-152.4458333
KA89,KA89,Montague Island Airport,59.925,-147.5166667
KA90,KA90,Shannon Pond Airport,59.03916667,-158.4638889
KA91,KA91,Omalik Lagoon Airport,69.15555556,-163.4972222
KA92,KA92,Omolik Lagoon Airport,69.14805556,-163.5102778
KA93,KA93,Bradley Lake Project Airport,59.79166667,-151.2666667
KA94,KA94,Ice Strip,70.57416667,-155.3180556
KA95,KA95,Ice Strip,70.31194444,-153.2491667
KA96,KA96,Ice Strip,70.98083333,-157.095
KA97,KA97,Akulik Air Strip,68.98555556,-163.4797222
KA98,KA98,Deadfall Air Strip,69.17083333,-163.2563889
KA99,KA99,Eagle Creek Airport,68.67666667,-162.6469444
KAA1,KAA1,Ice Kong,59.95277778,-162.6169444
KAA4,KAA4,Glacier Split,59.63333333,-151.2083333
KAA5,KAA5,Selby Lake Airport,66.95583333,-155.615
KAAF,KAAF,Apalachicola Regional,29.7275,-85.0275
KAAF,KAAF,Apalachicola Regional Cleve Randolph Field,29.7275,-85.0275
KAAF,KAAF,Apalachicola Regional,29.7275,-85.0275
KAAF,KAAF,Apalachicola Regional Cleve Randolph Field,29.7275,-85.0275
KABE,KABE,Lehigh Valley International,40.65472222,-75.43833333
KABE,KABE,Lehigh Valley International,40.65222222,-75.44027778
KABE,KABE,Lehigh Valley International,40.65222222,-75.44055556
KABE,KABE,Lehigh Valley International,40.65222222,-75.44027778
KABE,KABE,Lehigh Valley International,40.65222222,-75.44055556
KABE,KABE,Lehigh Valley International,40.6525,-75.44027778
KABI,KABI,Abilene Regional,32.40944444,-99.67972222
KABI,KABI,Abilene Regional,32.41111111,-99.68166667
KABI,KABI,Abilene Regional,32.41138889,-99.68194444
KABL,KABL,Ambler River,67.0875,-157.8458333
KABQ,KABQ,Albuquerque International Sunport,35.04166667,-106.6063889
KABQ,KABQ,Albuquerque International Sunport,35.04027778,-106.6091667
KABQ,KABQ,Albuquerque International Sunport,35.03888889,-106.6083333
KABQ,KABQ,Albuquerque International Sunport,35.04027778,-106.6091667
KABQ,KABQ,Albuquerque International Sunport,35.03888889,-106.6083333
KABR,KABR,Aberdeen Regional,45.44972222,-98.42166667
KABR,KABR,Aberdeen Regional,45.44916667,-98.42194444
KABR,KABR,Aberdeen Regional,45.44833333,-98.4225
KABR,KABR,Aberdeen Regional,45.44666667,-98.4225
KABR,KABR,Aberdeen Regional,45.44916667,-98.42194444
KABR,KABR,Aberdeen Regional,45.44666667,-98.4225
KABY,KABY,Southwest Georgia Regional,31.53222222,-84.19611111
KABY,KABY,Southwest Georgia Regional,31.53555556,-84.19444444
KACB,KACB,Antrim County,44.98472222,-85.19916667
KACB,KACB,Antrim County,44.98861111,-85.19833333
KACK,KACK,Nantucket Memorial,41.25666667,-70.05972222
KACK,KACK,Nantucket Memorial,41.25305556,-70.06027778
KACK,KACK,Nantucket Memorial,41.25305556,-70.06
KACK,KACK,Nantucket Memorial,41.25305556,-70.06027778
KACK,KACK,Nantucket Memorial,41.25305556,-70.06
KACT,KACT,Waco Regional,31.61138889,-97.22861111
KACT,KACT,Waco Regional,31.61222222,-97.23027778
KACV,KACV,Arcata,40.97916667,-124.1075
KACV,KACV,Arcata,40.97805556,-124.1086111
KACV,KACV,Arcata,40.97777778,-124.1083333
KACV,KACV,California Redwood Coast Humboldt County,40.97777778,-124.1083333
KACV,KACV,Arcata,40.97805556,-124.1086111
KACV,KACV,California Redwood Coast Humboldt County,40.97777778,-124.1083333
KACY,KACY,Nafec Atlantic City,39.45611111,-74.57805556
KACY,KACY,Nafec Atl,39.45666667,-74.57777778
KACY,KACY,Atlantic City International,39.4575,-74.57805556
KACY,KACY,Atlantic City International,39.4575,-74.57722222
KADK,KADK,Adak NS,51.88277778,-176.6447222
KADK,KADK,Adak,51.87805556,-176.6461111
KADK,KADK,Adak,51.87805556,-176.6458333
KADK,KADK,Adak,51.88361111,-176.6425
KADK,KADK,Adak,51.87805556,-176.6461111
KADK,KADK,Adak,51.88361111,-176.6425
KADM,KADM,Ardmore Municipal,34.30305556,-97.01972222
KADM,KADM,Ardmore Municipal,34.30416667,-97.02055556
KADM,KADM,Ardmore Municipal,34.30388889,-97.02055556
KADM,KADM,Ardmore Municipal,34.30416667,-97.02055556
KADM,KADM,Ardmore Municipal,34.30388889,-97.02055556
KADQ,KADQ,Kodiak Airport,57.75,-152.4938889
KADQ,KADQ,Kodiak Airport,57.74972222,-152.4938889
KADQ,KADQ,Kodiak Airport,57.75,-152.4938889
KADQ,KADQ,Kodiak Airport,57.74972222,-152.4938889
KADS,KADS,Addison,32.96833333,-96.83611111
KADS,KADS,Addison,32.96861111,-96.83638889
KADW,KADW,Andrews AFB,38.81083333,-76.86722222
KADW,KADW,Andrews AFB,38.81083333,-76.86694444
KADW,KADW,Joint Base Andrews,38.81083333,-76.86694444
KADW,KADW,Andrews AFB,38.81083333,-76.86694444
KADW,KADW,Joint Base Andrews,38.81083333,-76.86694444
KAED,KAED,Aleneva Airport,58.03333333,-152.9
KAET,KAET,Allakaket Airport,66.56166667,-152.6583333
KAET,KAET,Allakaket Airport,66.55194444,-152.6222222
KAEX,KAEX,England AFB,31.32416667,-92.54694444
KAEX,KAEX,Alexandria International,31.3275,-92.54861111
KAFF,KAFF,USAF Academy Airfield,38.96972222,-104.8125
KAFF,KAFF,USAF Academy Airfield,38.96972222,-104.8127778
KAFF,KAFF,USAF Academy Airfield,38.97416667,-104.8177778
KAFF,KAFF,USAF Academy Airfield,38.96972222,-104.8127778
KAFF,KAFF,USAF Academy Airfield,38.97416667,-104.8177778
KAFK,KAFK,Nebraska City Municipal,40.60694444,-95.86583333
KAFK,KAFK,Nebraska City Municipal,40.60555556,-95.86777778
KAFK,KAFK,Nebraska City Municipal,40.60638889,-95.86666667
KAFK,KAFK,Nebraska City Municipal,40.60666667,-95.86666667
KAFK,KAFK,Nebraska City Municipal,40.60555556,-95.86777778
KAFK,KAFK,Nebraska City Municipal,40.60666667,-95.86666667
KAFO,KAFO,Afton Municipal,42.71666667,-110.9333333
KAFO,KAFO,Afton Municipal,42.70888889,-110.9422222
KAFP,KAFP,Anson County,35.02388889,-80.08138889
KAFP,KAFP,Anson County,35.02055556,-80.07722222
KAFP,KAFP,Anson County Jeff Cloud Field,35.02055556,-80.07722222
KAFP,KAFP,Anson County,35.02055556,-80.07722222
KAFP,KAFP,Anson County Jeff Cloud Field,35.02055556,-80.07722222
KAFW,KAFW,Fort Worth Alliance,32.98666667,-97.3175
KAFW,KAFW,Fort Worth Alliance,32.98777778,-97.31888889
KAFW,KAFW,Fort Worth Alliance,32.9875,-97.31888889
KAFW,KAFW,Fort Worth Alliance,32.98944444,-97.31944444
KAFW,KAFW,Fort Worth Alliance,32.98777778,-97.31888889
KAFW,KAFW,Fort Worth Alliance,32.98944444,-97.31944444
KAFW,KAFW,Fort Worth Alliance,32.99027778,-97.31944444
KAGC,KAGC,Allegheny County,40.35472222,-79.93
KAGC,KAGC,Allegheny County,40.35472222,-79.93
KAGC,KAGC,Allegheny County,40.35444444,-79.93027778
KAGC,KAGC,Allegheny County,40.35444444,-79.92916667
KAGC,KAGC,Allegheny County,40.35444444,-79.93027778
KAGC,KAGC,Allegheny County,40.35444444,-79.92916667
KAGN,KAGN,Angoon Seaplane Base,57.50388889,-134.5833333
KAGS,KAGS,Bush Field,33.36916667,-81.96444444
KAGS,KAGS,Augusta Regional at Bush Field,33.36916667,-81.96444444
KAGS,KAGS,Augusta Regional at Bush Field,33.37,-81.96444444
KAHD,KAHD,Ardmore Airport,34.14694444,-97.12277778
KAHD,KAHD,Ardmore Downtown Executive,34.14694444,-97.12277778
KAHN,KAHN,Athens Municipal,33.94833333,-83.32694444
KAHN,KAHN,Athens/Ben Epps,33.94861111,-83.32638889
KAHN,KAHN,Athens/Ben Epps,33.94861111,-83.32583333
KAHN,KAHN,Athens/Ben Epps,33.94861111,-83.32638889
KAHN,KAHN,Athens/Ben Epps,33.94861111,-83.32583333
KAHT,KAHT,Amchitka,51.37861111,179.2586111
KAIA,KAIA,Alliance Municipal,42.05166667,-102.8066667
KAIA,KAIA,Alliance Municipal,42.05333333,-102.8038889
KAIA,KAIA,Alliance Municipal,42.05333333,-102.8036111
KAIA,KAIA,Alliance Municipal,42.05333333,-102.8038889
KAIA,KAIA,Alliance Municipal,42.05333333,-102.8036111
KAIB,KAIB,Anita Bay Airport,56.19,-132.4458333
KAID,KAID,Anderson Municipal-Darlington Field,40.10861111,-85.61305556
KAID,KAID,Anderson Municipal-Darlington Field,40.10861111,-85.61305556
KAIK,KAIK,Aiken Municipal,33.65,-81.68472222
KAIK,KAIK,Aiken Municipal,33.64944444,-81.685
KAIK,KAIK,Aiken Regional,33.64944444,-81.685
KAIN,KAIN,Wainwright Airport,70.63055556,-160.0430556
KAIN,KAIN,Wainwright Airport,70.63805556,-159.9947222
KAIY,KAIY,Bader Field,39.36,-74.46
KAIY,KAIY,Bader Field,39.36,-74.45722222
KAIZ,KAIZ,Lee C Fine Memorial,38.09833333,-92.54722222
KAIZ,KAIZ,Lee C Fine Memorial,38.09611111,-92.54944444
KAKB,KAKB,Atka Airport,52.22027778,-174.2069444
KAKB,KAKB,Atka Airport,52.22055556,-174.2061111
KAKC,KAKC,Akron Fulton International,41.0375,-81.46694444
KAKI,KAKI,Akiak Airport,60.90555556,-161.2233333
KAKI,KAKI,Akiak Airport,60.90277778,-161.2305556
KAKK,KAKK,Akhiok Airport,56.945,-154.1666667
KAKK,KAKK,Akhiok Airport,56.93861111,-154.1825
KAKN,KAKN,King Salmon Airport,58.67777778,-156.6516667
KAKN,KAKN,King Salmon Airport,58.67638889,-156.6486111
KAKO,KAKO,Akron Washington County,40.17555556,-103.2222222
KAKO,KAKO,Colorado Plains Regional,40.17555556,-103.2219444
KAKP,KAKP,Anaktuvuk Pass Airport,68.1375,-151.74
KAKP,KAKP,Anaktuvuk Pass Airport,68.13361111,-151.7433333
KAL1,KAL1,Albertville Regional-Thomas J Brumlik Field,34.22916667,-86.25583333
KAL2,KAL2,Shelby County,33.17694444,-86.78277778
KAL2,KAL2,Shelby County,33.17777778,-86.78333333
KAL3,KAL3,Madison County Executive/Tom Sharp Jr. Field,34.86138889,-86.5575
KAL3,KAL3,Madison County Executive/Tom Sharp Jr. Field,34.85944444,-86.5575
KAL3,KAL3,Huntsville Executive Airport Tom Sharp Jr,34.85944444,-86.5575
KAL3,KAL3,Madison County Executive Tom Sharp Jr Field,34.86138889,-86.5575
KAL3,KAL3,Huntsville Executive Airport Tom Sharp Jr,34.85944444,-86.5575
KAL3,KAL3,Huntsville Executive Tom Sharp Jr,34.85944444,-86.5575
KALB,KALB,Albany International,42.74583333,-73.80527778
KALB,KALB,Albany International,42.74916667,-73.80194444
KALE,KALE,Alpine Casparis Municipal,30.38416667,-103.6830556
KALE,KALE,Alpine Casparis Municipal,30.38416667,-103.6836111
KALI,KALI,Alice International,27.74083333,-98.02722222
KALI,KALI,Alice International,27.74083333,-98.02694444
KALM,KALM,Alamogordo White Sands Regional,32.83972222,-105.99
KALM,KALM,Alamogordo White Sands Regional,32.84,-105.9905556
KALM,KALM,Alamogordo White Sands Regional,32.84138889,-105.9888889
KALM,KALM,Alamogordo White Sands Regional,32.83944444,-105.9911111
KALM,KALM,Alamogordo White Sands Regional,32.84,-105.9905556
KALM,KALM,Alamogordo White Sands Regional,32.83944444,-105.9911111
KALN,KALN,St. Louis Regional,38.89166667,-90.04833333
KALN,KALN,St. Louis Regional,38.89,-90.04611111
KALO,KALO,Waterloo Regional,42.55611111,-92.39972222
KALO,KALO,Waterloo Regional,42.55694444,-92.40027778
KALS,KALS,Alamosa Municipal,37.43666667,-105.8666667
KALS,KALS,San Luis Valley Regional/Bergman Field,37.435,-105.8666667
KALS,KALS,San Luis Valley Regional/Bergman Field,37.435,-105.8677778
KALS,KALS,San Luis Valley Regional/Bergman Field,37.435,-105.8666667
KALS,KALS,San Luis Valley Regional/Bergman Field,37.435,-105.8677778
KALW,KALW,Walla Walla Regional,46.09472222,-118.2911111
KALW,KALW,Walla Walla Regional,46.09472222,-118.2888889
KALW,KALW,Walla Walla Regional,46.09527778,-118.2858333
KALW,KALW,Walla Walla Regional,46.09472222,-118.2888889
KALW,KALW,Walla Walla Regional,46.09527778,-118.2858333
KALW,KALW,Walla Walla Regional,46.0925,-118.2841667
KALX,KALX,Thomas C. Russell Field,32.91666667,-85.96666667
KALX,KALX,Thomas C. Russell Field,32.91472222,-85.96305556
KALZ,KALZ,Alitak Seaplane Base,56.89583333,-154.2458333
KAMA,KAMA,Amarillo International,35.22722222,-101.7219444
KAMA,KAMA,Rick Husband Amarillo International,35.22722222,-101.7219444
KAMA,KAMA,Rick Husband Amarillo International,35.21944444,-101.7058333
KAMK,KAMK,Animas Air Park,37.20388889,-107.8686111
KAMK,KAMK,Animas Air Park,37.20305556,-107.8691667
KAMN,KAMN,Gratiot Community,43.32083333,-84.68666667
KAMN,KAMN,Gratiot Community,43.32222222,-84.68805556
KAMW,KAMW,Ames Municipal,41.99416667,-93.61833333
KAMW,KAMW,Ames Municipal,41.99194444,-93.62194444
KANA,KANA,Anaheim-Disneyland HP,33.81666667,-117.9333333
KANB,KANB,Anniston/Calhoun County,33.59027778,-85.85583333
KANB,KANB,Anniston Metro,33.58805556,-85.85805556
KANB,KANB,Anniston Regional,33.58805556,-85.85805556
KANB,KANB,Anniston Metro,33.58805556,-85.85805556
KANB,KANB,Anniston Regional,33.58805556,-85.85805556
KANC,KANC,Anchorage International,61.16916667,-149.9852778
KANC,KANC,Ted Stevens Anchorage International,61.17444444,-149.9961111
KANC,KANC,Ted Stevens Anchorage International,61.17444444,-149.9963889
KANC,KANC,Ted Stevens Anchorage International,61.17416667,-149.9980556
KANC,KANC,Ted Stevens Anchorage International,61.17444444,-149.9963889
KANC,KANC,Ted Stevens Anchorage International,61.17416667,-149.9980556
KAND,KAND,Anderson Regional,34.49361111,-82.71
KAND,KAND,Anderson Regional,34.49444444,-82.70944444
KANI,KANI,Aniak Airport,61.58166667,-159.5430556
KANN,KANN,Annette Island,55.03694444,-131.5705556
KANN,KANN,Annette Island,55.0425,-131.5722222
KANN,KANN,Annette Island,55.04222222,-131.5708333
KANN,KANN,Annette Island,55.0425,-131.5722222
KANN,KANN,Annette Island,55.04222222,-131.5708333
KANP,KANP,Lee,38.94277778,-76.56888889
KANP,KANP,Lee,38.94277778,-76.56833333
KANV,KANV,Anvik Airport,62.64777778,-160.1888889
KANV,KANV,Anvik Airport,62.64722222,-160.19
KAOH,KAOH,Lima Allen County,40.70833333,-84.02666667
KAOH,KAOH,Lima Allen County,40.70833333,-84.02694444
KAOO,KAOO,Altoona-Blair County,40.29722222,-78.32
KAOO,KAOO,Altoona-Blair County,40.29638889,-78.32
KAOS,KAOS,Amook Bay Airport,57.45472222,-153.8130556
KAPA,KAPA,Arapahoe County,39.57277778,-104.8477778
KAPA,KAPA,Centennial,39.57277778,-104.8477778
KAPA,KAPA,Centennial,39.57027778,-104.8494444
KAPA,KAPA,Centennial,39.57,-104.8494444
KAPA,KAPA,Centennial,39.57,-104.8491667
KAPC,KAPC,Napa County,38.21222222,-122.28
KAPC,KAPC,Napa County,38.21305556,-122.2805556
KAPC,KAPC,Napa County,38.21361111,-122.2802778
KAPC,KAPC,Napa County,38.21305556,-122.2805556
KAPF,KAPF,Naples Municipal,26.15277778,-81.77527778
KAPF,KAPF,Naples Municipal,26.15222222,-81.77583333
KAPF,KAPF,Naples Municipal,26.1525,-81.77555556
KAPF,KAPF,Naples Municipal,26.15222222,-81.77583333
KAPF,KAPF,Naples Municipal,26.1525,-81.77555556
KAPG,KAPG,Phillips AAF,39.46611111,-76.16972222
KAPG,KAPG,Phillips AAF,39.46611111,-76.16888889
KAPG,KAPG,Phillips AAF,39.46555556,-76.16833333
KAPN,KAPN,Phelps/Collins,45.08166667,-83.55583333
KAPN,KAPN,Alpena County Regional,45.07805556,-83.56027778
KAPT,KAPT,Marion County Brown Field,35.06055556,-85.58527778
KAPV,KAPV,Calf Apple Valley,34.52638889,-117.2127778
KAPV,KAPV,Apple Valley Airport,34.52638889,-117.2127778
KAPV,KAPV,Apple Valley Airport,34.57527778,-117.1861111
KAQY,KAQY,Girdwood Airport,60.96666667,-149.1236111
KAQY,KAQY,Girdwood Airport,60.96611111,-149.1258333
KAQY,KAQY,Girdwood Airport,60.96888889,-149.1194444
KAQY,KAQY,Girdwood Airport,60.96611111,-149.1258333
KAQY,KAQY,Girdwood Airport,60.96888889,-149.1194444
KAR1,KAR1,Russellville Regional,35.26472222,-93.09388889
KAR1,KAR1,Russellville Regional,35.25916667,-93.09333333
KAR1,KAR1,Russellville Regional,35.25916667,-93.0925
KAR2,KAR2,Dennis F Cantrell Field,35.08083333,-92.425
KAR2,KAR2,Dennis F Cantrell Field,35.08111111,-92.42444444
KAR2,KAR2,Dennis F Cantrell Field,35.08083333,-92.425
KAR2,KAR2,Dennis F Cantrell Field,35.08111111,-92.42444444
KARA,KARA,Acadiana Reg,30.03777778,-91.88388889
KARA,KARA,Acadiana Regional,30.0375,-91.88388889
KARA,KARA,Acadiana Regional,30.03777778,-91.88388889
KARB,KARB,Ann Arbor Municipal,42.22277778,-83.74444444
KARB,KARB,Ann Arbor Municipal,42.22305556,-83.74555556
KARC,KARC,Wien Arctic Village,68.1375,-145.5244444
KARC,KARC,Arctic Village Airport,68.11472222,-145.5794444
KARE,KARE,Antonio/Nery/Juarbe Pol,18.45027778,-66.67583333
KARE,KARE,Antonio/Nery/Juarbe Pol,18.45,-66.67527778
KARE,KARE,Antonio/Nery/Juarbe Pol,18.45083333,-66.67555556
KARE,KARE,Antonio/Nery/Juarbe Pol,18.45,-66.67527778
KARE,KARE,Antonio/Nery/Juarbe Pol,18.45083333,-66.67555556
KARG,KARG,Walnut Ridge Regional,36.125,-90.92638889
KARG,KARG,Walnut Ridge Regional,36.12472222,-90.925
KART,KART,Watertown International,43.99083333,-76.02138889
KART,KART,Watertown International,43.99194444,-76.02055556
KART,KART,Watertown International,43.99194444,-76.01944444
KART,KART,Watertown International,43.99194444,-76.02055556
KART,KART,Watertown International,43.99194444,-76.01944444
KARV,KARV,Lakeland/Noble F. Lee Memorial Field,45.92805556,-89.73083333
KARX,KARX,Asbury Park/Monmouth County,40.18333333,-74.11666667
KASE,KASE,Aspen Pitkin County Sardy Field,39.22416667,-106.8688889
KASE,KASE,Aspen Pitkin County Sardy Field,39.22305556,-106.8688889
KASE,KASE,Aspen Pitkin County Sardy Field,39.22194444,-106.8683333
KASE,KASE,Aspen Pitkin County Sardy Field,39.22305556,-106.8688889
KASE,KASE,Aspen Pitkin County Sardy Field,39.22194444,-106.8683333
KASH,KASH,Nashua Airport,42.77888889,-71.50944444
KASH,KASH,Boire Field,42.77888889,-71.50944444
KASH,KASH,Boire Field,42.78166667,-71.51472222
KASH,KASH,Boire Field,42.7825,-71.51416667
KASH,KASH,Boire Field,42.78166667,-71.51472222
KASH,KASH,Boire Field,42.7825,-71.51416667
KASL,KASL,Harrison County,32.52166667,-94.30805556
KASL,KASL,Harrison County,32.52055556,-94.30777778
KASN,KASN,Talladega Municipal,33.56972222,-86.05083333
KASN,KASN,Talladega Municipal,33.56944444,-86.05111111
KASQ,KASQ,Austin Airport,39.46888889,-117.1961111
KASQ,KASQ,Austin Airport,39.46805556,-117.1952778
KASQ,KASQ,Austin Airport,39.46805556,-117.1975
KASQ,KASQ,Austin Airport,39.46805556,-117.1952778
KASQ,KASQ,Austin Airport,39.46805556,-117.1975
KAST,KAST,Astoria Regional,46.15972222,-123.88
KAST,KAST,Astoria Regional,46.15805556,-123.8786111
KASX,KASX,John F Kennedy Memorial,46.54861111,-90.91861111
KASX,KASX,John F Kennedy Memorial,46.54861111,-90.91888889
KASY,KASY,Ashley Municipal,46.02388889,-99.35277778
KASY,KASY,Ashley Municipal,46.02388889,-99.3525
KASY,KASY,Ashley Municipal,46.02472222,-99.35166667
KASY,KASY,Ashley Municipal,46.02305556,-99.35277778
KASY,KASY,Ashley Municipal,46.02388889,-99.3525
KASY,KASY,Ashley Municipal,46.02305556,-99.35277778
KATE,KATE,Antlers Municipal,34.19277778,-95.64972222
KATE,KATE,Antlers Municipal,34.1925,-95.64972222
KATE,KATE,Antlers Municipal,34.19361111,-95.65
KATK,KATK,Atqasuk Edward Burnell Sr. Memorial,70.4675,-157.4519444
KATK,KATK,Atqasuk Edward Burnell Sr. Memorial,70.46722222,-157.4358333
KATK,KATK,Atqasuk Edward Burnell Sr. Memorial,70.46722222,-157.4355556
KATK,KATK,Atqasuk Edward Burnell Sr. Memorial,70.46722222,-157.4358333
KATK,KATK,Atqasuk Edward Burnell Sr. Memorial,70.46722222,-157.4355556
KATL,KATL,Atlanta Municipal,33.64083333,-84.42722222
KATL,KATL,William B. Hartsfield Atlanta International,33.64083333,-84.42722222
KATL,KATL,Hartsfield-Jackson Atlanta International,33.64083333,-84.42722222
KATL,KATL,Hartsfield-Jackson Atlanta International,33.63666667,-84.42805556
KATL,KATL,Hartsfield-Jackson Atlanta International,33.63666667,-84.42777778
KATL,KATL,Hartsfield-Jackson Atlanta International,33.63666667,-84.42805556
KATL,KATL,Hartsfield-Jackson Atlanta International,33.63666667,-84.42777778
KATO,KATO,Ohio University Snyder Field,39.21083333,-82.23166667
KATO,KATO,Ohio University Snyder Field,39.21194444,-82.22916667
KATO,KATO,Ohio University,39.21194444,-82.22916667
KATO,KATO,Ohio University Snyder Field,39.21194444,-82.22916667
KATO,KATO,Ohio University,39.21194444,-82.22916667
KATS,KATS,Artesia Municipal,32.84833333,-104.4669444
KATS,KATS,Artesia Municipal,32.8525,-104.4677778
KATS,KATS,Artesia Municipal,32.85166667,-104.4672222
KATS,KATS,Artesia Municipal,32.85194444,-104.4675
KATS,KATS,Artesia Municipal,32.8525,-104.4677778
KATS,KATS,Artesia Municipal,32.85194444,-104.4675
KATT,KATT,Atmautluak Airport,60.8675,-162.2708333
KATT,KATT,Atmautluak Airport,60.86722222,-162.2733333
KATT,KATT,Atmautluak Airport,60.86777778,-162.2741667
KATT,KATT,Atmautluak Airport,60.86722222,-162.2733333
KATT,KATT,Atmautluak Airport,60.86777778,-162.2741667
KATU,KATU,Casco Cove,52.82583333,173.1727778
KATU,KATU,Casco Cove CGS,52.8325,173.1755556
KATW,KATW,Outagamie County Regional,44.25777778,-88.52
KATW,KATW,Outagamie County Regional,44.25805556,-88.51916667
KATW,KATW,Appleton International,44.25805556,-88.51916667
KATW,KATW,Outagamie County Regional,44.25805556,-88.51916667
KATW,KATW,Appleton International,44.25805556,-88.51916667
KATY,KATY,Watertown Municipal,44.90888889,-97.15416667
KATY,KATY,Watertown Regional,44.90888889,-97.15416667
KATY,KATY,Watertown Regional,44.91388889,-97.15472222
KAUG,KAUG,Augusta,44.31805556,-69.79666667
KAUG,KAUG,Augusta State,44.32055556,-69.79722222
KAUK,KAUK,Alakanuk New,62.68916667,-164.6108333
KAUK,KAUK,Alakanuk Airport,62.68,-164.66
KAUK,KAUK,Alakanuk Airport,62.68305556,-164.7222222
KAUK,KAUK,Alakanuk Airport,62.68,-164.66
KAUK,KAUK,Alakanuk Airport,62.68305556,-164.7222222
KAUM,KAUM,Austin Municipal,43.66444444,-92.93388889
KAUM,KAUM,Austin Municipal,43.66277778,-92.93305556
KAUN,KAUN,Auburn Municipal,38.95277778,-121.0819444
KAUN,KAUN,Auburn Municipal,38.95472222,-121.0816667
KAUO,KAUO,Auburn-Opelika,32.61527778,-85.43194444
KAUO,KAUO,Auburn University Regional,32.615,-85.43388889
KBSM,KBSM,Austin - Bergstrom International,30.19444444,-97.67
KAUS,KAUS,Austin - Bergstrom International,30.19444444,-97.67
KAUW,KAUW,Wausau Downtown,44.92333333,-89.62305556
KAUW,KAUW,Wausau Downtown,44.92638889,-89.62694444
KAUW,KAUW,Wausau Downtown,44.92638889,-89.62666667
KAUW,KAUW,Wausau Downtown,44.92638889,-89.62694444
KAUW,KAUW,Wausau Downtown,44.92638889,-89.62666667
KAUZ,KAUZ,Aurora Municipal,41.77083333,-88.47277778
KAUZ,KAUZ,Aurora Municipal,41.77194444,-88.47555556
KAVL,KAVL,Asheville Regional,35.435,-82.54111111
KAVL,KAVL,Asheville Regional,35.43611111,-82.54194444
KAVL,KAVL,Asheville Regional,35.43444444,-82.54277778
KAVL,KAVL,Asheville Regional,35.43611111,-82.54194444
KAVL,KAVL,Asheville Regional,35.43444444,-82.54277778
KAVO,KAVO,Avon Park Municipal,27.5925,-81.52694444
KAVO,KAVO,Avon Park Executive,27.59138889,-81.52888889
KAVP,KAVP,Wilkes Barre Scranton International,41.33916667,-75.72583333
KAVP,KAVP,Wilkes Barre Scranton International,41.33861111,-75.72333333
KAVP,KAVP,Wilkes Barre Scranton International,41.33833333,-75.72333333
KAVP,KAVP,Wilkes Barre Scranton International,41.33861111,-75.72333333
KAVP,KAVP,Wilkes Barre Scranton International,41.33833333,-75.72333333
KAVW,KAVW,Avra Valley,32.40916667,-111.2180556
KAVW,KAVW,Marana Regional,32.40944444,-111.2183333
KAVX,KAVX,Catalina,33.405,-118.4158333
KAWK,KAWK,Wake Island Airfield,19.28,166.6402778
KAWK,KAWK,Wake Island Airfield,19.2825,166.6366667
KAWM,KAWM,West Memphis Municipal,35.135,-90.23444444
KAWX,KAWX,Andrews County,32.32944444,-102.5302778
KAWX,KAWX,Andrews County,32.33111111,-102.5294444
KAWX,KAWX,Andrews County,32.33083333,-102.5297222
KAWX,KAWX,Andrews County,32.33111111,-102.5294444
KAWX,KAWX,Andrews County,32.33083333,-102.5297222
KAXB,KAXB,Maxson Airfield,44.31666667,-75.89972222
KAXN,KAXN,Chandler Field,45.86722222,-95.39416667
KAXN,KAXN,Chandler Field,45.86638889,-95.39472222
KAXS,KAXS,Altus Municipal,34.69805556,-99.33805556
KAXS,KAXS,Altus/Quartz Mountain Regional,34.69888889,-99.33833333
KAXV,KAXV,Neil Armstrong,40.49333333,-84.29888889
KAXV,KAXV,Neil Armstrong,40.49361111,-84.29805556
KAXX,KAXX,Angel Fire,36.42055556,-105.2894444
KAXX,KAXX,Angel Fire,36.42194444,-105.29
KAYS,KAYS,Waycross Ga,31.24916667,-82.39555556
KAYS,KAYS,Waycross-Ware County,31.24861111,-82.39666667
KAYS,KAYS,Waycross-Ware County,31.24833333,-82.39527778
KAZ1,KAZ1,Valle,35.65083333,-112.1480556
KAZ1,KAZ1,Valle,35.65055556,-112.1480556
KAZ2,KAZ2,H. A. Clark Memorial Field,35.30222222,-112.1941667
KAZ2,KAZ2,H. A. Clark Memorial Field,35.30555556,-112.1944444
KAZ3,KAZ3,Glendale Municipal,33.52722222,-112.2952778
KAZ3,KAZ3,Glendale Municipal,33.52694444,-112.2952778
KDQF,KDQF,Williams Gateway,33.30777778,-111.6555556
KAZA,KAZA,Phoenix - Mesa Gateway,33.30777778,-111.6555556
KAZO,KAZO,Kalamazoo/Battle Creek International,42.23638889,-85.55361111
KAZO,KAZO,Kalamazoo/Battle Creek International,42.23444444,-85.55166667
KB19,KB19,Biddeford Municipal,43.46416667,-70.4725
KB21,KB21,Sugarloaf Regional,45.08611111,-70.21611111
KB21,KB21,Sugarloaf Regional,45.08527778,-70.21638889
KB21,KB21,Sugarloaf Regional,45.08555556,-70.21638889
KB21,KB21,Sugarloaf Regional,45.08527778,-70.21638889
KB21,KB21,Sugarloaf Regional,45.08555556,-70.21638889
KBAB,KBAB,Beale AFB,39.13611111,-121.4355556
KBAB,KBAB,Beale AFB,39.13611111,-121.4366667
KBAD,KBAD,Barksdale AFB,32.50166667,-93.6625
KBAD,KBAD,Barksdale AFB,32.50194444,-93.66277778
KBAD,KBAD,Barksdale AFB,32.50194444,-93.6625
KBAD,KBAD,Barksdale AFB,32.50194444,-93.66277778
KBAD,KBAD,Barksdale AFB,32.50194444,-93.6625
KBAF,KBAF,Barnes Municipal,42.16,-72.71638889
KBAF,KBAF,Barnes Municipal,42.15805556,-72.71583333
KBAF,KBAF,Westfield Barnes Regional,42.15805556,-72.71583333
KBAF,KBAF,Barnes Municipal,42.15805556,-72.71583333
KBAF,KBAF,Westfield Barnes Regional,42.15805556,-72.71583333
KBAM,KBAM,Lander County,40.5975,-116.8722222
KBAM,KBAM,Battle Mountain Airport,40.59916667,-116.8744444
KBAR,KBAR,Baker AAF,55.36666667,-133.6
KBBC,KBBC,Bay City Municipal,28.97305556,-95.86333333
KBBC,KBBC,Bay City Municipal,28.97333333,-95.86333333
KBBC,KBBC,Bay City Regional,28.97333333,-95.86333333
KBBC,KBBC,Bay City Municipal,28.97333333,-95.86333333
KBBC,KBBC,Bay City Regional,28.97333333,-95.86333333
KBBF,KBBF,N Eng Heliport,42.50833333,-71.18333333
KBBX,KBBX,Blue Bell Airport,40.13666667,-75.2675
KBBX,KBBX,Wings Field,40.13666667,-75.2675
KBBX,KBBX,Wings Field,40.1375,-75.26527778
KBCB,KBCB,Virginia Tech/Montgomery Executive,37.20722222,-80.40694444
KBCB,KBCB,Virginia Tech/Montgomery Executive,37.20777778,-80.40777778
KBCC,KBCC,Bear Creek Airport,57.6175,-155.8672222
KBCE,KBCE,Bryce Canyon Airport,37.70638889,-112.1447222
KBCE,KBCE,Bryce Canyon Airport,37.70638889,-112.1458333
KBCJ,KBCJ,Baca Grande,37.96666667,-105.7666667
KBCS,KBCS,Southern Seaplane,29.86611111,-90.02222222
KBCT,KBCT,Boca Raton Public,26.37083333,-80.10833333
KBDE,KBDE,Baudette International,48.72083333,-94.6
KBDE,KBDE,Baudette International,48.72833333,-94.61222222
KBDE,KBDE,Baudette International,48.73027778,-94.61111111
KBDG,KBDG,Blanding Municipal,37.58277778,-109.4825
KBDG,KBDG,Blanding Municipal,37.58333333,-109.4833333
KBDL,KBDL,Bradley International,41.93861111,-72.68333333
KBDL,KBDL,Bradley International,41.9375,-72.68305556
KBDL,KBDL,Bradley International,41.93888889,-72.68333333
KBDL,KBDL,Bradley International,41.93916667,-72.68333333
KBDL,KBDL,Bradley International,41.93888889,-72.68333333
KBDL,KBDL,Bradley International,41.93916667,-72.68333333
KBDR,KBDR,Igor I Sikorsky Memorial,41.16416667,-73.12444444
KBDR,KBDR,Igor I Sikorsky Memorial,41.16333333,-73.12611111
KBDY,KBDY,Bandon State,43.0875,-124.4083333
KBDY,KBDY,Bandon State,43.08638889,-124.4077778
KBED,KBED,Laurence G Hanscom Field,42.47083333,-71.29
KBED,KBED,Laurence G Hanscom Field,42.47,-71.28916667
KBED,KBED,Laurence G Hanscom Field,42.47,-71.28888889
KBED,KBED,Laurence G Hanscom Field,42.47,-71.28916667
KBED,KBED,Laurence G Hanscom Field,42.47,-71.28888889
KBEH,KBEH,Ross Field,42.12777778,-86.42833333
KBEH,KBEH,Southwest Michigan Regional,42.12861111,-86.42861111
KBEH,KBEH,Southwest Michigan Regional,42.12861111,-86.42611111
KBEH,KBEH,Southwest Michigan Regional,42.12861111,-86.42861111
KBEH,KBEH,Southwest Michigan Regional,42.12861111,-86.42611111
KBEH,KBEH,Southwest Michigan Regional,42.12833333,-86.425
KBET,KBET,Bethel Airport,60.78444444,-161.8313889
KBET,KBET,Bethel Airport,60.77861111,-161.8372222
KBFB,KBFB,Blue Fox Bay Airport,58.18333333,-152.1333333
KBFD,KBFD,Bradford Regional,41.80222222,-78.63944444
KBFD,KBFD,Bradford Regional,41.80305556,-78.64
KBFF,KBFF,William B. Heilig Field,41.87527778,-103.6011111
KBFF,KBFF,Western Neb. Regional/William B. Heilig Field,41.87527778,-103.6011111
KBFF,KBFF,Western Neb. Regional/William B. Heilig Field,41.87416667,-103.5955556
KBFI,KBFI,King County Airport-Boeing Field,47.52888889,-122.2994444
KBFI,KBFI,Boeing Field/King County International,47.53,-122.3019444
KBFK,KBFK,Buckley Air National Guard Base,39.70166667,-104.7516667
KBFK,KBFK,Buckley AFB,39.70166667,-104.7516667
KBFL,KBFL,Meadows Field,35.43,-119.0522222
KBFL,KBFL,Meadows Field,35.43361111,-119.0566667
KBFL,KBFL,Meadows Field,35.43388889,-119.0577778
KBFM,KBFM,Mobile Aerospace,30.62638889,-88.06805556
KBFM,KBFM,Mobile Downtown,30.62666667,-88.06805556
KBFP,KBFP,Beaver County,40.77222222,-80.39111111
KBFP,KBFP,Beaver County,40.7725,-80.39138889
KBFR,KBFR,Virgil I Grissom Municipal,38.84,-86.44527778
KBFR,KBFR,Virgil I Grissom Municipal,38.84,-86.44527778
KBFT,KBFT,Beaufort County,32.41194444,-80.63472222
KBFT,KBFT,Beaufort County,32.41222222,-80.63444444
KBGD,KBGD,Hutchinson County,35.70083333,-101.3930556
KBGD,KBGD,Hutchinson County,35.70083333,-101.3936111
KBGE,KBGE,Decatur County Industrial Air Park,30.97166667,-84.6375
KBGE,KBGE,Decatur County Industrial Air Park,30.97166667,-84.63694444
KBGM,KBGM,Greater Binghamton/Edwin A. Link Field,42.20138889,-75.96916667
KBGM,KBGM,Greater Binghamton/Edwin A. Link Field,42.20861111,-75.97972222
KBGM,KBGM,Greater Binghamton/Edwin A. Link Field,42.20833333,-75.97972222
KBGM,KBGM,Greater Binghamton/Edwin A. Link Field,42.20861111,-75.97972222
KBGM,KBGM,Greater Binghamton/Edwin A. Link Field,42.20833333,-75.97972222
KBGQ,KBGQ,Big Lake Airport,61.53583333,-149.8125
KBGQ,KBGQ,Big Lake Airport,61.53611111,-149.8138889
KBGQ,KBGQ,Big Lake Airport,61.53472222,-149.8125
KBGQ,KBGQ,Big Lake Airport,61.53611111,-149.8138889
KBGQ,KBGQ,Big Lake Airport,61.53472222,-149.8125
KBGR,KBGR,Bangor International,44.80777778,-68.82777778
KBGR,KBGR,Bangor International,44.8075,-68.82805556
KBGS,KBGS,Big Spring McMahon-Wrinkle,32.21444444,-101.525
KBGS,KBGS,Big Spring McMahon-Wrinkle,32.2125,-101.5216667
KBGT,KBGT,Bagdad Airport,34.59333333,-113.1708333
KBGT,KBGT,Bagdad Airport,34.59583333,-113.1702778
KBGT,KBGT,Bagdad Airport,34.59277778,-113.1719444
KBGT,KBGT,Bagdad Airport,34.59583333,-113.1702778
KBGT,KBGT,Bagdad Airport,34.59277778,-113.1719444
KBHB,KBHB,Hancock County-Bar Harbor,44.44888889,-68.36166667
KBHB,KBHB,Hancock County-Bar Harbor,44.44972222,-68.36166667
KBHB,KBHB,Hancock County-Bar Harbor,44.44972222,-68.36138889
KBHC,KBHC,Laughlin Bullhead International,35.16333333,-114.5644444
KIFP,KIFP,Laughlin/Bullhead International,35.16444444,-114.5652778
KIFP,KIFP,Laughlin/Bullhead International,35.15583333,-114.5594444
KIFP,KIFP,Laughlin/Bullhead International,35.15472222,-114.5594444
KIFP,KIFP,Laughlin/Bullhead International,35.15583333,-114.5594444
KIFP,KIFP,Laughlin/Bullhead International,35.15472222,-114.5594444
KBHM,KBHM,Birmingham Airport,33.56305556,-86.75555556
KBHM,KBHM,Birmingham International,33.56305556,-86.75555556
KBHM,KBHM,Birmingham-Shuttlesworth International,33.56305556,-86.75555556
KBHM,KBHM,Birmingham-Shuttlesworth International,33.56388889,-86.75222222
KBIC,KBIC,Big Creek Airport,57.66666667,-157.5833333
KBID,KBID,Block Island State,41.16666667,-71.57916667
KBID,KBID,Block Island State,41.16805556,-71.57777778
KBIE,KBIE,Beatrice Municipal,40.29888889,-96.75333333
KBIE,KBIE,Beatrice Municipal,40.30138889,-96.75416667
KBIF,KBIF,Biggs AAF,31.84944444,-106.3794444
KBIF,KBIF,Biggs AAF,31.84944444,-106.38
KBIG,KBIG,Allen AAF,63.99361111,-145.7188889
KBIG,KBIG,Allen AAF,63.99472222,-145.7202778
KBIH,KBIH,Eastern Sierra Regional,37.37333333,-118.365
KBIH,KBIH,Eastern Sierra Regional,37.37305556,-118.3636111
KBIH,KBIH,Bishop Airport,37.37305556,-118.3636111
KBIH,KBIH,Eastern Sierra Regional,37.37305556,-118.3636111
KBIH,KBIH,Bishop Airport,37.37305556,-118.3636111
KBIL,KBIL,Billings Logan International,45.80694444,-108.5427778
KBIL,KBIL,Billings Logan International,45.80777778,-108.5427778
KBIL,KBIL,Billings Logan International,45.80777778,-108.5436111
KBIS,KBIS,Bismarck Municipal,46.77888889,-100.7525
KBIS,KBIS,Bismarck Municipal,46.77277778,-100.7458333
KBIX,KBIX,Keesler AFB,30.41111111,-88.92361111
KBIX,KBIX,Keesler AFB,30.41055556,-88.92444444
KBJC,KBJC,Rocky Mountain Metropolitan,39.90888889,-105.1172222
KBJC,KBJC,Rocky Mountain Metro,39.90888889,-105.1172222
KBJC,KBJC,Rocky Mountain Metropolitan,39.90888889,-105.1172222
KBJC,KBJC,Rocky Mountain Metro,39.90888889,-105.1172222
KBJI,KBJI,Bemidji Municipal,47.50972222,-94.93472222
KBJI,KBJI,Bemidji/Beltrami County,47.50944444,-94.93361111
KBJI,KBJI,Bemidji Regional,47.50944444,-94.93361111
KBJI,KBJI,Bemidji Regional,47.51083333,-94.93472222
KBJJ,KBJJ,Wayne County,40.87472222,-81.88694444
KBJJ,KBJJ,Wayne County,40.87472222,-81.88666667
KBJJ,KBJJ,Wayne County,40.87472222,-81.88833333
KBKC,KBKC,Buckland Airport,65.97888889,-161.1266667
KBKC,KBKC,Buckland Airport,65.98166667,-161.1491667
KBKE,KBKE,Baker City Municipal,44.83833333,-117.81
KBKE,KBKE,Baker City Municipal,44.83722222,-117.8091667
KBKF,KBKF,Brooks Lake Airport,58.6,-156.2333333
KBKG,KBKG,Branson Airport,36.53194444,-93.20055556
KBKH,KBKH,Barking Sands Pacific Missile Range Facility,22.02166667,-159.7866667
KBKH,KBKH,Barking Sands PMRF,22.02277778,-159.785
KBKL,KBKL,Lakefront,41.51694444,-81.68333333
KBKL,KBKL,Burke Lakefront,41.5175,-81.68333333
KBKL,KBKL,Burke Lakefront,41.51777778,-81.68277778
KBKL,KBKL,Burke Lakefront,41.5175,-81.68333333
KBKL,KBKL,Burke Lakefront,41.51777778,-81.68277778
KBKW,KBKW,Raleigh County Memorial,37.78194444,-81.12416667
KBKW,KBKW,Raleigh County Memorial,37.78722222,-81.12416667
KBKX,KBKX,Brookings Regional,44.30333333,-96.81111111
KBKX,KBKX,Brookings Regional,44.30472222,-96.81694444
KBKX,KBKX,Brookings Regional,44.30444444,-96.81888889
KBKX,KBKX,Brookings Regional,44.30472222,-96.81694444
KBKX,KBKX,Brookings Regional,44.30444444,-96.81888889
KBLD,KBLD,Boulder City Municipal,35.9475,-114.8611111
KBLD,KBLD,Boulder City Municipal,35.94722222,-114.8602778
KBLD,KBLD,Boulder City Municipal,35.9475,-114.8613889
KBLD,KBLD,Boulder City Municipal,35.9475,-114.8611111
KBLD,KBLD,Boulder City Municipal,35.9475,-114.8613889
KBLD,KBLD,Boulder City Municipal,35.94722222,-114.8611111
KBLF,KBLF,Mercer County,37.29583333,-81.20805556
KBLF,KBLF,Mercer County,37.29583333,-81.20777778
KBLF,KBLF,Mercer County,37.29583333,-81.2075
KBLH,KBLH,Blythe Airport,33.62083333,-114.7188889
KBLH,KBLH,Blythe Airport,33.61916667,-114.7169444
KBLI,KBLI,Bellingham International,48.79444444,-122.5347222
KBLI,KBLI,Bellingham International,48.79277778,-122.5375
KBLM,KBLM,Monmouth Executive,40.18666667,-74.125
KBLM,KBLM,Monmouth Executive,40.18666667,-74.12444444
KBLV,KBLV,Scott AFB,38.54277778,-89.85111111
KBLV,KBLV,Scott AFB/MidAmerica,38.54527778,-89.83527778
KBMC,KBMC,Brigham City Airport,41.54916667,-112.0622222
KBMC,KBMC,Brigham City Airport,41.5525,-112.0622222
KBMC,KBMC,Brigham City Airport,41.55444444,-112.0622222
KBMC,KBMC,Brigham City Airport,41.5525,-112.0622222
KBMC,KBMC,Brigham City Airport,41.55444444,-112.0622222
KBMC,KBMC,Brigham City Regional,41.55444444,-112.0622222
KBMG,KBMG,Monroe County,39.14,-86.61472222
KBMG,KBMG,Monroe County,39.14,-86.61472222
KBMG,KBMG,Monroe County,39.14611111,-86.61666667
KBMI,KBMI,Central Illinois Regional,40.48194444,-88.9275
KBMI,KBMI,Central Illinois Regional,40.47722222,-88.91583333
KBMI,KBMI,Central Il Regional Airport at Bloomington,40.47722222,-88.91583333
KBML,KBML,Berlin Municipal,44.57472222,-71.17638889
KBML,KBML,Berlin Regional,44.57527778,-71.17583333
KBMX,KBMX,Big Mountain AFS,59.36194444,-155.2566667
KBMX,KBMX,Big Mountain AFS,59.36111111,-155.2588889
KBNA,KBNA,Nashville International,36.12666667,-86.68194444
KBNA,KBNA,Nashville International,36.12444444,-86.67805556
KBNF,KBNF,Warm Spring Bay Seaplane Base,57.08916667,-134.8313889
KBNG,KBNG,Banning Municipal,33.92305556,-116.8505556
KBNG,KBNG,Banning Municipal,33.9225,-116.8505556
KBNG,KBNG,Banning Municipal,33.9225,-116.8508333
KBNG,KBNG,Banning Municipal,33.9225,-116.8505556
KBNG,KBNG,Banning Municipal,33.9225,-116.8508333
KBNL,KBNL,Barnwell County,33.25777778,-81.38833333
KBNL,KBNL,Barnwell Regional,33.25805556,-81.38805556
KBNL,KBNL,Barnwell Regional,33.25777778,-81.38833333
KBNL,KBNL,Barnwell Regional,33.25805556,-81.38805556
KBNL,KBNL,Barnwell Regional,33.25777778,-81.38833333
KBNO,KBNO,Burns Municipal,43.59055556,-118.9541667
KBNO,KBNO,Burns Municipal,43.59194444,-118.9555556
KBOI,KBOI,Boise Air Terminal,43.56527778,-116.225
KBOI,KBOI,Boise Air Terminal,43.56444444,-116.2227778
KBOK,KBOK,Brookings Airport,42.07472222,-124.2888889
KBOK,KBOK,Brookings Airport,42.07444444,-124.29
KBOK,KBOK,Brookings Airport,42.07388889,-124.2897222
KBOS,KBOS,Logan International,42.36361111,-71.00611111
KBOS,KBOS,Logan International,42.36305556,-71.00638889
KBOW,KBOW,Bartow Municipal,27.94333333,-81.78361111
KBOW,KBOW,Bartow Municipal,27.94333333,-81.78333333
KBOW,KBOW,Bartow Executive,27.94333333,-81.78333333
KBPT,KBPT,Jefferson County,29.95083333,-94.02
KBPT,KBPT,Southeast Texas Regional,29.95083333,-94.02
KBPT,KBPT,Jack Brooks Regional,29.95083333,-94.02
KBPT,KBPT,Jack Brooks Regional,29.95083333,-94.02055556
KBQK,KBQK,Glynco Jetport,31.25888889,-81.46638889
KBQK,KBQK,Brunswick Golden Isles,31.25888889,-81.46638889
KBQK,KBQK,Brunswick Golden Isles,31.25916667,-81.46638889
KBQN,KBQN,Rafael Hernandez,18.495,-67.12944444
KBQN,KBQN,Rafael Hernandez,18.49472222,-67.12944444
KBQV,KBQV,Bartlett Cove Seaplane Base,58.45555556,-135.8833333
KBQV,KBQV,Bartlett Cove Seaplane Base,58.45527778,-135.8852778
KBRD,KBRD,Brainerd/Crow Wing County,46.39722222,-94.1375
KBRD,KBRD,Brainerd Lakes Regional,46.39722222,-94.1375
KBRD,KBRD,Brainerd Lakes Regional,46.40166667,-94.13555556
KBRD,KBRD,Brainerd Lakes Regional,46.40222222,-94.13555556
KBRD,KBRD,Brainerd Lakes Regional,46.40416667,-94.13361111
KBRD,KBRD,Brainerd Lakes Regional,46.40166667,-94.13555556
KBRD,KBRD,Brainerd Lakes Regional,46.40416667,-94.13361111
KBRG,KBRG,Whitesburg Municipal,37.11666667,-82.81666667
KBRL,KBRL,Burlington Municipal,40.78611111,-91.12333333
KBRL,KBRL,Southeast Iowa Regional,40.78333333,-91.12555556
KBRO,KBRO,Brownsville South Padre Island International,25.90638889,-97.42555556
KBRO,KBRO,Brownsville South Padre Island International,25.90694444,-97.42583333
KBRO,KBRO,Brownsville South Padre Island International,25.90611111,-97.42611111
KBRO,KBRO,Brownsville South Padre Island International,25.90694444,-97.42583333
KBRO,KBRO,Brownsville South Padre Island International,25.91083333,-97.42888889
KBRO,KBRO,Brownsville South Padre Island International,25.90611111,-97.42611111
KBRW,KBRW,Wiley Post/Will Rogers Memorial,71.28555556,-156.7661111
KBRW,KBRW,Wiley Post/Will Rogers Memorial,71.285,-156.7686111
KBRW,KBRW,Wiley Post/Will Rogers Memorial,71.28472222,-156.7686111
KBRW,KBRW,Wiley Post/Will Rogers Memorial,71.285,-156.7686111
KBRW,KBRW,Wiley Post/Will Rogers Memorial,71.28472222,-156.7686111
KBRY,KBRY,Samuels Field,37.81444444,-85.49972222
KBSM,KBSM,Bergstrom AFB,30.19472222,-97.67666667
KBSQ,KBSQ,Bisbee Municipal,31.37055556,-109.8825
KBSQ,KBSQ,Bisbee Municipal,31.36388889,-109.8830556
KBSW,KBSW,Boswell Bay Airport,60.42361111,-146.1444444
KBSW,KBSW,Boswell Bay Airport,60.42305556,-146.1458333
KBSZ,KBSZ,Bartletts Airport,58.23361111,-157.3502778
KBSZ,KBSZ,Bartletts Airport,58.21611111,-157.3525
KA2K,KA2K,Bartletts Airport,58.23305556,-157.3663889
KBTI,KBTI,Barter Island Dew Station,70.13472222,-143.5783333
KBTI,KBTI,Barter Island LRRS,70.13388889,-143.5819444
KBTI,KBTI,Barter Island Airport,70.13388889,-143.5819444
KBTI,KBTI,Barter Island LRRS,70.13388889,-143.5819444
KBTI,KBTI,Barter Island Airport,70.11305556,-143.6536111
KBTI,KBTI,Barter Island LRRS,70.13388889,-143.5819444
KBTI,KBTI,Barter Island Airport,70.11305556,-143.6536111
KBTL,KBTL,W K Kellogg,42.30916667,-85.24777778
KBTL,KBTL,W K Kellogg,42.30638889,-85.25
KBTM,KBTM,Bert Mooney,45.95111111,-112.4938889
KBTM,KBTM,Bert Mooney,45.95472222,-112.4975
KBTP,KBTP,Butler County/K. W. Scholter Field,40.77694444,-79.95
KBTP,KBTP,Butler County/K. W. Scholter Field,40.77666667,-79.95111111
KBTP,KBTP,Pittsburgh Butler Regional,40.77666667,-79.95111111
KBTR,KBTR,Baton Rouge Metropolitan/Ryan Field,30.53166667,-91.15055556
KBTR,KBTR,Baton Rouge Metropolitan/Ryan Field,30.53277778,-91.15
KBTR,KBTR,Baton Rouge Metropolitan/Ryan Field,30.53305556,-91.15
KBTR,KBTR,Baton Rouge Metropolitan/Ryan Field,30.53277778,-91.15
KBTR,KBTR,Baton Rouge Metropolitan/Ryan Field,30.53305556,-91.15
KBTT,KBTT,Bettles Airport,66.91527778,-151.5263889
KBTT,KBTT,Bettles Airport,66.91388889,-151.5291667
KBTV,KBTV,Burlington International,44.47277778,-73.15305556
KBTV,KBTV,Burlington International,44.47194444,-73.15333333
KBTY,KBTY,Beatty Airport,36.86111111,-116.7852778
KBTY,KBTY,Beatty Airport,36.86111111,-116.7869444
KBTY,KBTY,Beatty Airport,36.86111111,-116.7863889
KBTY,KBTY,Beatty Airport,36.86111111,-116.7869444
KBTY,KBTY,Beatty Airport,36.86111111,-116.7863889
KBUF,KBUF,Greater Buffalo International,42.94111111,-78.73638889
KBUF,KBUF,Buffalo Niagara International,42.94055556,-78.7325
KBUF,KBUF,Buffalo Niagara International,42.94055556,-78.73222222
KBUF,KBUF,Buffalo Niagara International,42.94055556,-78.73055556
KBUF,KBUF,Buffalo Niagara International,42.94055556,-78.73222222
KBUF,KBUF,Buffalo Niagara International,42.94055556,-78.73055556
KBUM,KBUM,Butler Memorial,38.28972222,-94.34
KBUM,KBUM,Butler Memorial,38.28972222,-94.34027778
KBUM,KBUM,Butler Memorial,38.28972222,-94.34
KBUM,KBUM,Butler Memorial,38.28972222,-94.34027778
KBUR,KBUR,Hollywood-Burbank Midpoint,34.2,-118.3577778
KBUR,KBUR,Bob Hope,34.2,-118.3577778
KBUR,KBUR,Bob Hope,34.20055556,-118.3586111
KBVD,KBVD,Beaver Inlet Seaport,53.8325,-166.3025
KBVO,KBVO,Frank Phillips,36.7625,-96.01083333
KBVO,KBVO,Bartlesville Municipal,36.7625,-96.01083333
KBVO,KBVO,Bartlesville Municipal,36.76416667,-96.01111111
KBVO,KBVO,Bartlesville Municipal,36.76333333,-96.01111111
KBVO,KBVO,Bartlesville Municipal,36.76416667,-96.01111111
KBVO,KBVO,Bartlesville Municipal,36.76333333,-96.01111111
KBVR,KBVR,Beaver Island,45.69361111,-85.56583333
KBVR,KBVR,Beaver Island,45.69222222,-85.56666667
KBVX,KBVX,Batesville Regional,35.72611111,-91.6475
KBVY,KBVY,Beverly Municipal,42.58333333,-70.91555556
KBVY,KBVY,Beverly Municipal,42.58416667,-70.91611111
KBVY,KBVY,Beverly Regional,42.58416667,-70.91611111
KBVY,KBVY,Beverly Municipal,42.58416667,-70.91611111
KBVY,KBVY,Beverly Regional,42.58416667,-70.91611111
KBWD,KBWD,Brownwood Regional,31.79472222,-98.95666667
KBWD,KBWD,Brownwood Regional,31.79361111,-98.95638889
KBWG,KBWG,Bowling Green-Warren County Regional,36.96222222,-86.42222222
KBWG,KBWG,Bowling Green-Warren County Regional,36.96444444,-86.41972222
KBAL,KBAL,Friendship International,39.17555556,-76.67138889
KBWI,KBWI,Baltimore/Washington International,39.175,-76.67
KBWI,KBWI,Baltimore/Washington International Thurgood Marshall,39.17527778,-76.66833333
KBWI,KBWI,Baltimore/Washington International Thurgood Marshall,39.17583333,-76.66888889
KBWI,KBWI,Baltimore/Washington International Thurgood Marshall,39.17527778,-76.66833333
KBWI,KBWI,Baltimore/Washington International Thurgood Marshall,39.17583333,-76.66888889
KBWM,KBWM,Bowman County,46.1875,-103.4208333
KBWM,KBWM,Bowman Municipal,46.18694444,-103.4280556
KBWS,KBWS,Blaine Municipal,48.98972222,-122.7305556
KBWS,KBWS,Blaine Municipal,48.99,-122.7325
KBXC,KBXC,Sheraton Inn Heliport,42.48472222,-71.54444444
KBXS,KBXS,Borrego Valley,33.25972222,-116.3222222
KBXS,KBXS,Borrego Valley,33.25916667,-116.3208333
KBYA,KBYA,Boundary Airport,64.07638889,-141.1144444
KBYA,KBYA,Boundary Airport,64.07833333,-141.1133333
KRKH,KRKH,Rock Hill/York County/Bryant Field,34.98777778,-81.05722222
KBYG,KBYG,Johnson County,44.38138889,-106.7211111
KBYG,KBYG,Johnson County,44.38111111,-106.7216667
KBYH,KBYH,Blytheville AFB,35.96416667,-89.94583333
KBYH,KBYH,Arkansas International,35.96416667,-89.94583333
KBYH,KBYH,Arkansas International,35.96444444,-89.94388889
KBYI,KBYI,Burley Municipal,42.54138889,-113.7741667
KBYI,KBYI,Burley Municipal,42.5425,-113.7716667
KMI5,KMI5,Boyne Mountain,45.16583333,-84.92416667
KBYW,KBYW,Blakely Island Airport,48.57916667,-122.825
KBYW,KBYW,Blakely Island Airport,48.57888889,-122.8263889
KBZN,KBZN,Gallatin Field,45.78027778,-111.1594444
KBZN,KBZN,Gallatin Field,45.7775,-111.1519444
KBZN,KBZN,Bozeman Yellowstone International,45.7775,-111.1519444
KBZN,KBZN,Gallatin Field,45.7775,-111.1519444
KBZN,KBZN,Bozeman Yellowstone International,45.77722222,-111.1502778
KBZN,KBZN,Bozeman Yellowstone International,45.77722222,-111.1505556
KBZN,KBZN,Bozeman Yellowstone International,45.77722222,-111.1502778
KBZS,KBZS,Buzzards Point Seaplane Base,38.86333333,-77.01333333
KBZT,KBZT,Eagle Air Park,28.98222222,-95.57972222
KC01,KC01,Camarillo Airport,34.21388889,-119.0944444
KC01,KC01,Camarillo Airport,34.21361111,-119.0944444
KC02,KC02,Bakersfield Municipal,35.32472222,-118.9958333
KC02,KC02,Bakersfield Municipal,35.32472222,-118.9961111
KCAD,KCAD,Wexford County,44.27583333,-85.41916667
KCAD,KCAD,Wexford County,44.27527778,-85.41888889
KCAE,KCAE,Columbia Metropolitan,33.93638889,-81.11583333
KCAE,KCAE,Columbia Metropolitan,33.94055556,-81.11916667
KCAE,KCAE,Columbia Metropolitan,33.93888889,-81.11944444
KCAK,KCAK,Akron-Canton Regional,40.91388889,-81.44166667
KCAK,KCAK,Akron-Canton Regional,40.915,-81.44361111
KCAR,KCAR,Caribou Municipal,46.87083333,-68.02083333
KCAR,KCAR,Caribou Municipal,46.87138889,-68.01805556
KCAR,KCAR,Caribou Municipal,46.87166667,-68.01805556
KCAR,KCAR,Caribou Municipal,46.87138889,-68.01805556
KCAR,KCAR,Caribou Municipal,46.87166667,-68.01805556
KCBA,KCBA,Corner Bay Airport,57.73777778,-135.1255556
KCBE,KCBE,Cumberland Municipal,39.61444444,-78.76611111
KCBE,KCBE,Greater Cumberland Regional,39.61555556,-78.76083333
KCBE,KCBE,Greater Cumberland Regional,39.61527778,-78.76138889
KCBF,KCBF,Council Bluffs Municipal,41.25888889,-95.75972222
KCBF,KCBF,Council Bluffs Municipal,41.26,-95.75861111
KCBK,KCBK,Murray,39.40388889,-101.0466667
KCBM,KCBM,Columbus AFB,33.64361111,-88.44388889
KCBM,KCBM,Columbus AFB,33.64527778,-88.44583333
KCCR,KCCR,Buchanan Field,37.98888889,-122.0555556
KCCR,KCCR,Buchanan Field,37.98972222,-122.0558333
KCCR,KCCR,Buchanan Field,37.98972222,-122.0569444
KCCY,KCCY,Charles City Municipal,43.0725,-92.61083333
KCCY,KCCY,Northeast Iowa Regional,43.0725,-92.61083333
KCCY,KCCY,Northeast Iowa Regional,43.07361111,-92.61083333
KCCY,KCCY,Northeast Iowa Regional,43.0725,-92.61083333
KCDB,KCDB,Cold Bay Airport,55.19972222,-162.7197222
KCDB,KCDB,Cold Bay Airport,55.20527778,-162.7244444
KCDB,KCDB,Cold Bay Airport,55.20583333,-162.7263889
KCDB,KCDB,Cold Bay Airport,55.20527778,-162.7244444
KCDB,KCDB,Cold Bay Airport,55.20583333,-162.7263889
KCDB,KCDB,Cold Bay Airport,55.20583333,-162.7261111
KCDC,KCDC,Cedar City Regional,37.7025,-113.0961111
KCDC,KCDC,Cedar City Regional,37.70083333,-113.0988889
KCDH,KCDH,Harrell Field,33.6175,-92.76333333
KCDH,KCDH,Harrell Field,33.62277778,-92.76333333
KCDL,KCDL,Candle 2,65.90805556,-161.9383333
KCDL,KCDL,Candle 2,65.90777778,-161.9263889
KCDN,KCDN,Woodward Field,34.26666667,-80.6
KCDN,KCDN,Woodward Field,34.28361111,-80.56472222
KCDR,KCDR,Chadron Municipal,42.835,-103.0977778
KCDR,KCDR,Chadron Municipal,42.8375,-103.0952778
KCDV,KCDV,Cordova Mile 13,60.49305556,-145.47
KCDV,KCDV,Mile 13 Field,60.49305556,-145.47
KCDV,KCDV,Merle K Mudhole Smith,60.49166667,-145.4775
KCDW,KCDW,Caldwell Wright,40.87555556,-74.28138889
KCDW,KCDW,Essex County,40.87527778,-74.28138889
KCEA,KCEA,Cessna Aircraft Field,37.64861111,-97.25027778
KCEA,KCEA,Cessna Aircraft Field,37.64861111,-97.25055556
KCEC,KCEC,Jack McNamara Field,41.78,-124.2358333
KCEC,KCEC,Jack McNamara Field,41.78027778,-124.2366667
KCEF,KCEF,Westover AFB,42.19777778,-72.53055556
KCEF,KCEF,Westover ARB Metropolitan,42.19388889,-72.53472222
KCEM,KCEM,Central Airport,65.57472222,-144.7819444
KCEM,KCEM,Central Airport,65.57388889,-144.7808333
KCEU,KCEU,Clemson-Oconee County,34.67444444,-82.89027778
KCEU,KCEU,Oconee County Regional,34.67194444,-82.88694444
KCEU,KCEU,Oconee County Regional,34.67222222,-82.88583333
KCEU,KCEU,Oconee County Regional,34.67194444,-82.88694444
KCEU,KCEU,Oconee County Regional,34.67222222,-82.88583333
KCEV,KCEV,Mettel Field,39.69861111,-85.13166667
KCEV,KCEV,Mettel Field,39.69861111,-85.13166667
KCEV,KCEV,Mettel Field,39.69805556,-85.13111111
KCEW,KCEW,Bob Sikes,30.77972222,-86.5225
KCEW,KCEW,Bob Sikes,30.77888889,-86.52222222
KCEX,KCEX,Chena Hot Springs Airport,65.05277778,-146.045
KCEX,KCEX,Chena Hot Springs Airport,65.05194444,-146.0475
KCEY,KCEY,Kyle-Oakley Field,36.66555556,-88.37111111
KCEY,KCEY,Kyle-Oakley Field,36.66444444,-88.37277778
KCEZ,KCEZ,Cortez Montezuma County,37.30277778,-108.6272222
KCEZ,KCEZ,Cortez Municipal,37.30305556,-108.6280556
KCFA,KCFA,Coffee Point Airport,58.21666667,-157.5
KCFT,KCFT,Greenlee County,32.95722222,-109.205
KCFT,KCFT,Greenlee County,32.95694444,-109.2111111
KCFV,KCFV,Coffeyville Municipal,37.09388889,-95.57166667
KCFV,KCFV,Coffeyville Municipal,37.09416667,-95.57194444
KCFV,KCFV,Coffeyville Municipal,37.09527778,-95.57444444
KCFV,KCFV,Coffeyville Municipal,37.09388889,-95.57194444
KCFV,KCFV,Coffeyville Municipal,37.09416667,-95.57194444
KCFV,KCFV,Coffeyville Municipal,37.09388889,-95.57194444
KCGA,KCGA,Craig Seaplane Base,55.47916667,-133.1461111
KCGE,KCGE,Cambridge-Dorchester,38.53944444,-76.02777778
KCGE,KCGE,Cambridge-Dorchester,38.53944444,-76.03027778
KCGE,KCGE,Cambridge Dorchester Regional,38.53944444,-76.03027778
KCGE,KCGE,Cambridge Dorchester,38.53944444,-76.03027778
KCGE,KCGE,Cambridge Dorchester Regional,38.53944444,-76.03027778
KCGF,KCGF,Cuyahoga County,41.56527778,-81.48666667
KCGF,KCGF,Cuyahoga County,41.565,-81.48638889
KCGF,KCGF,Cuyahoga County,41.56444444,-81.48722222
KCGI,KCGI,Cape Girardeau Regional,37.22361111,-89.57166667
KCGI,KCGI,Cape Girardeau Regional,37.22527778,-89.57083333
KCGS,KCGS,College Park Airport,38.98055556,-76.92277778
KCGS,KCGS,College Park Airport,38.98055556,-76.92222222
KCGX,KCGX,Meigs Field,41.85888889,-87.60833333
KCGZ,KCGZ,Casa Grande Municipal,32.95472222,-111.7661111
KCGZ,KCGZ,Casa Grande Municipal,32.955,-111.7669444
KCHA,KCHA,Lovell Field,35.03638889,-85.20361111
KCHA,KCHA,Lovell Field,35.03527778,-85.20361111
KCHD,KCHD,Chandler Municipal,33.26888889,-111.8111111
KCHD,KCHD,Chandler Municipal,33.26916667,-111.8111111
KCHI,KCHI,Chicago Metropolitan Area,41.87388889,-87.75555556
KQCG,KQCG,Challis Airport,44.51916667,-114.22
KCHL,KCHL,Challis Airport,44.52305556,-114.2166667
KCHL,KCHL,Challis Airport,44.52361111,-114.2180556
KCHO,KCHO,Charlottesville Albemarle,38.14138889,-78.45305556
KCHO,KCHO,Charlottesville Albemarle,38.13861111,-78.45277778
KCHO,KCHO,Charlottesville Albemarle,38.13972222,-78.45222222
KCHO,KCHO,Charlottesville Albemarle,38.13861111,-78.45277778
KCHO,KCHO,Charlottesville Albemarle,38.13972222,-78.45222222
KCHP,KCHP,Circle Hot Springs Airport,65.48555556,-144.6108333
KCHP,KCHP,Circle Hot Springs Airport,65.48583333,-144.6116667
KCHP,KCHP,Circle Hot Springs Airport,65.48555556,-144.6108333
KCHP,KCHP,Circle Hot Springs Airport,65.48583333,-144.6116667
KCHS,KCHS,Charleston International,32.89916667,-80.03888889
KCHS,KCHS,Charleston AFB/International,32.89861111,-80.04055556
KCHU,KCHU,Chuathbaluk Airport,61.57194444,-159.245
KCHU,KCHU,Chuathbaluk Airport,61.57916667,-159.2155556
KCHZ,KCHZ,Chiloquin State,42.57638889,-121.8769444
KCHZ,KCHZ,Chiloquin State,42.58305556,-121.8761111
KCHZ,KCHZ,Chiloquin State,42.57944444,-121.8788889
KCHZ,KCHZ,Chiloquin State,42.58305556,-121.8761111
KCHZ,KCHZ,Chiloquin State,42.57944444,-121.8788889
KCIB,KCIB,Catalina,33.405,-118.4158333
KCIC,KCIC,Chico Municipal,39.79583333,-121.8566667
KCIC,KCIC,Chico Municipal,39.79527778,-121.8583333
KCID,KCID,Cedar Rapids Municipal,41.88444444,-91.70611111
KCID,KCID,The Eastern Iowa,41.88444444,-91.70611111
KCID,KCID,The Eastern Iowa,41.88472222,-91.71083333
KCIG,KCIG,Craig-Moffat,40.49555556,-107.525
KCIG,KCIG,Craig-Moffat,40.49527778,-107.5216667
KCIK,KCIK,Chalkyitsik Airport,66.64805556,-143.7291667
KCIK,KCIK,Chalkyitsik Airport,66.645,-143.74
KCIL,KCIL,Council Airport,64.90805556,-163.7330556
KCIL,KCIL,Council Airport,64.89777778,-163.7033333
KCIL,KCIL,Council Airport,64.89666667,-163.7036111
KCIL,KCIL,Council Airport,64.89777778,-163.7033333
KCIL,KCIL,Council Airport,64.89666667,-163.7036111
KCIN,KCIN,Arthur N Neu,42.04722222,-94.79055556
KCIN,KCIN,Arthur N Neu,42.04611111,-94.78888889
KCIN,KCIN,Arthur N Neu,42.04666667,-94.78861111
KCIN,KCIN,Arthur N Neu,42.04611111,-94.78888889
KCIN,KCIN,Arthur N Neu,42.04666667,-94.78861111
KCIR,KCIR,Cairo Regional,37.06111111,-89.21805556
KCIR,KCIR,Cairo Regional,37.06444444,-89.21972222
KCIR,KCIR,Cairo Regional,37.06416667,-89.21944444
KCIR,KCIR,Cairo Regional,37.06444444,-89.21972222
KCIR,KCIR,Cairo Regional,37.06416667,-89.21944444
KINR,KINR,Kincheloe AFB,46.24222222,-84.46611111
KCIU,KCIU,Chippewa County International,46.24194444,-84.46611111
KCIU,KCIU,Chippewa County International,46.25083333,-84.4725
KCIV,KCIV,Chomley Airport,55.24777778,-132.3236111
KCJI,KCJI,Crafton Island Airport,60.50277778,-147.9402778
KCJW,KCJW,Clay Center Municipal,39.38722222,-97.15722222
KCKB,KCKB,Benedum,39.29555556,-80.22944444
KCKB,KCKB,North Central West Virginia,39.29666667,-80.22805556
KCKB,KCKB,North Central West Virginia,39.29777778,-80.2275
KCKB,KCKB,North Central West Virginia,39.29666667,-80.22805556
KCKB,KCKB,North Central West Virginia,39.29777778,-80.2275
KCKD,KCKD,Crooked Creek Airport,61.88555556,-158.1372222
KCKD,KCKD,Crooked Creek Airport,61.86777778,-158.135
KCKE,KCKE,Pearce Field,38.93472222,-122.6222222
KCKM,KCKM,Fletcher Field,34.29972222,-90.51222222
KCKU,KCKU,Cordova Municipal,60.5425,-145.7266667
KCKU,KCKU,Cordova Municipal,60.54388889,-145.7266667
KCKU,KCKU,Cordova Municipal,60.54361111,-145.7258333
KCKU,KCKU,Cordova Municipal,60.54388889,-145.7266667
KCKU,KCKU,Cordova Municipal,60.54361111,-145.7258333
KCKV,KCKV,Outlaw Field,36.62083333,-87.41444444
KCKV,KCKV,Outlaw Field,36.62194444,-87.415
KCKX,KCKX,Chicken Airport,64.06777778,-141.9491667
KCKX,KCKX,Chicken Airport,64.07138889,-141.9522222
KCKX,KCKX,Chicken Airport,64.06666667,-141.9513889
KCKX,KCKX,Chicken Airport,64.07138889,-141.9522222
KCKX,KCKX,Chicken Airport,64.06666667,-141.9513889
KCLC,KCLC,Clear Lake Metroport,29.55694444,-95.1375
KCLD,KCLD,Palomar,33.12861111,-117.2797222
KCLD,KCLD,McClellan-Palomar,33.12861111,-117.2797222
KCLD,KCLD,McClellan-Palomar,33.12833333,-117.28
KCLE,KCLE,Cleveland-Hopkins International,41.41083333,-81.84944444
KCLE,KCLE,Cleveland-Hopkins International,41.40944444,-81.855
KCLE,KCLE,Cleveland-Hopkins International,41.40944444,-81.85472222
KCLE,KCLE,Cleveland-Hopkins International,41.40944444,-81.855
KCLE,KCLE,Cleveland-Hopkins International,41.40944444,-81.85472222
KCLF,KCLF,Clear Mews,64.30166667,-149.1177778
KCLG,KCLG,Coalinga Municipal,36.16055556,-120.3594444
KCLG,KCLG,New Coalinga Municipal,36.16222222,-120.2947222
KCLI,KCLI,Clintonville Municipal,44.61305556,-88.73111111
KCLI,KCLI,Clintonville Municipal,44.61333333,-88.73083333
KCLI,KCLI,Clintonville Municipal,44.61305556,-88.73083333
KCLI,KCLI,Clintonville Municipal,44.61333333,-88.73083333
KCLI,KCLI,Clintonville Municipal,44.61305556,-88.73083333
KCLK,KCLK,Clinton Municipal,35.53777778,-98.93166667
KCLK,KCLK,Clinton Regional,35.53833333,-98.93277778
KCLL,KCLL,Easterwood Field,30.58944444,-96.36444444
KCLL,KCLL,Easterwood Field,30.58861111,-96.36388889
KCLL,KCLL,Easterwood Field,30.58805556,-96.3625
KCLM,KCLM,William R. Fairchild International,48.11888889,-123.4936111
KCLM,KCLM,William R. Fairchild International,48.12027778,-123.4997222
KCLP,KCLP,Clarks Point Airport,58.84305556,-158.5430556
KCLP,KCLP,Clarks Point Airport,58.83361111,-158.5294444
KCLR,KCLR,Cliff Hatfield Memorial,33.12972222,-115.5216667
KCLR,KCLR,Cliff Hatfield Memorial,33.13138889,-115.5213889
KCLS,KCLS,Chehalis Airport,46.67388889,-122.9811111
KCLS,KCLS,Chehalis Centralia,46.67388889,-122.9811111
KCLS,KCLS,Chehalis Centralia,46.67694444,-122.9827778
KCLT,KCLT,Douglas Municipal,35.21916667,-80.93583333
KCLT,KCLT,Charlotte Douglas International,35.21388889,-80.94305556
KCLT,KCLT,Charlotte Douglas International,35.21361111,-80.94916667
KCLU,KCLU,Columbus Municipal,39.26194444,-85.89638889
KCLU,KCLU,Columbus Municipal,39.26194444,-85.89638889
KCMH,KCMH,Port Columbus International,39.99111111,-82.87833333
KCMH,KCMH,Port Columbus International,39.99805556,-82.89194444
KCMH,KCMH,Port Columbus International,39.99694444,-82.89222222
KCMH,KCMH,John Glenn Columbus International,39.99694444,-82.89222222
KCMH,KCMH,Port Columbus International,39.99805556,-82.89194444
KCMH,KCMH,John Glenn Columbus International,39.99694444,-82.89222222
KCMI,KCMI,University of Illinois/Willard,40.03972222,-88.27972222
KCMI,KCMI,University of Illinois/Willard,40.03888889,-88.27777778
KCMX,KCMX,Houghton County Memorial,47.16777778,-88.48638889
KCMX,KCMX,Houghton County Memorial,47.16833333,-88.48916667
KCNE,KCNE,Fremont County,38.43055556,-105.1083333
KCNE,KCNE,Fremont County,38.42833333,-105.1061111
KCNE,KCNE,Fremont County,38.42861111,-105.1069444
KCNE,KCNE,Fremont County,38.42833333,-105.1069444
KCNE,KCNE,Fremont County,38.42833333,-105.1061111
KCNE,KCNE,Fremont County,38.42861111,-105.1069444
KCNE,KCNE,Fremont County,38.42833333,-105.1061111
KCNE,KCNE,Fremont County,38.42861111,-105.1069444
KCNK,KCNK,Blosser Municipal,39.5425,-97.65166667
KCNK,KCNK,Blosser Municipal,39.54916667,-97.65222222
KCNM,KCNM,Cavern City Air Terminal,32.33722222,-104.2627778
KCNM,KCNM,Cavern City Air Terminal,32.3375,-104.2633333
KCNO,KCNO,Chino Airport,33.97083333,-117.6413889
KCNO,KCNO,Chino Airport,33.97472222,-117.6363889
KCNW,KCNW,TSTC Waco,31.63666667,-97.07222222
KCNW,KCNW,TSTC Waco,31.63777778,-97.07416667
KCNW,KCNW,Heart of Texas Industrial,31.63777778,-97.07416667
KCNW,KCNW,TSTC Waco,31.63777778,-97.07416667
KCNY,KCNY,Canyonlands Field,38.75944444,-109.7461111
KCNY,KCNY,Canyonlands Field,38.755,-109.7547222
KCNY,KCNY,Canyonlands Field,38.75777778,-109.7533333
KCNY,KCNY,Canyonlands Field,38.7575,-109.7536111
KCO3,KCO3,Marina Municipal,36.68194444,-121.7622222
KCO3,KCO3,Marina Municipal,36.68166667,-121.7616667
KCOA,KCOA,Columbia Airport,38.03055556,-120.4144444
KCOD,KCOD,Yellowstone Regional,44.51583333,-109.0275
KCOD,KCOD,Yellowstone Regional,44.52027778,-109.0238889
KCOE,KCOE,Coeur d'Alene - Pappy Boyington Field,47.775,-116.8177778
KCOE,KCOE,Coeur d'Alene - Pappy Boyington Field,47.77444444,-116.8194444
KCOF,KCOF,Patrick AFB,28.23916667,-80.60777778
KCOF,KCOF,Patrick AFB,28.235,-80.61
KCOF,KCOF,Patrick AFB,28.235,-80.61027778
KCOF,KCOF,Patrick AFB,28.235,-80.61
KCOM,KCOM,Coleman Municipal,31.84111111,-99.40361111
KCON,KCON,Concord Municipal,43.20333333,-71.50222222
KCON,KCON,Concord Municipal,43.20277778,-71.50222222
KCOS,KCOS,Peterson Field,38.80888889,-104.7091667
KCOS,KCOS,City of Colorado Springs Municipal,38.80583333,-104.7008333
KCOT,KCOT,Cotulla-La Salle County,28.45694444,-99.21861111
KCOT,KCOT,Cotulla-La Salle County,28.45666667,-99.22027778
KCOT,KCOT,Cotulla-La Salle County,28.45666667,-99.21833333
KCOT,KCOT,Cotulla-La Salle County,28.45583333,-99.21722222
KCOT,KCOT,Cotulla-La Salle County,28.45666667,-99.21833333
KCOT,KCOT,Cotulla-La Salle County,28.45583333,-99.21722222
KCOT,KCOT,Cotulla-La Salle County,28.45666667,-99.22027778
KCOT,KCOT,Cotulla-La Salle County,28.45583333,-99.21722222
KCOU,KCOU,Columbia Regional,38.81361111,-92.21916667
KCOU,KCOU,Columbia Regional,38.81805556,-92.21972222
KCOU,KCOU,Columbia Regional,38.81722222,-92.21805556
KCOU,KCOU,Columbia Regional,38.81805556,-92.21972222
KCOU,KCOU,Columbia Regional,38.81722222,-92.21805556
KCPR,KCPR,Casper/Natrona County International,42.90861111,-106.4625
KCPR,KCPR,Casper/Natrona County International,42.90805556,-106.4644444
KCPR,KCPR,Casper/Natrona County International,42.90583333,-106.4636111
KCPR,KCPR,Casper/Natrona County International,42.90805556,-106.4644444
KCPR,KCPR,Casper/Natrona County International,42.90583333,-106.4636111
KCPS,KCPS,Bi-State Parks,38.57138889,-90.15722222
KCPX,KCPX,Benjamin Rivera Noriega,18.31305556,-65.30472222
KCPX,KCPX,Benjamin Rivera Noriega,18.31305556,-65.30388889
KCPX,KCPX,Benjamin Rivera Noriega,18.31333333,-65.30444444
KCPX,KCPX,Benjamin Rivera Noriega,18.31305556,-65.30388889
KCQL,KCQL,Glen-Aspen,39.38888889,-107.1594444
KCQL,KCQL,Glen-Aspen,39.38888889,-107.16
KCQW,KCQW,Cheraw Municipal/Lynch Bellinger Field,34.71083333,-79.96166667
KHCW,KHCW,Cheraw Municipal/Lynch Bellinger Field,34.71083333,-79.96166667
KHCW,KHCW,Cheraw Municipal/Lynch Bellinger Field,34.71277778,-79.95694444
KCRE,KCRE,Grand Strand,33.81166667,-78.72416667
KCRE,KCRE,Grand Strand,33.81166667,-78.72388889
KCRG,KCRG,Craig Municipal,30.33638889,-81.51444444
KCRG,KCRG,Jacksonville Executive at Craig,30.33638889,-81.51444444
KCRG,KCRG,Craig Municipal,30.33638889,-81.51444444
KCRG,KCRG,Jacksonville Executive at Craig,30.33638889,-81.51444444
KCRP,KCRP,Corpus Christi International,27.77,-97.50083333
KCRP,KCRP,Corpus Christi International,27.77027778,-97.50111111
KCRP,KCRP,Corpus Christi International,27.77111111,-97.50194444
KCRP,KCRP,Corpus Christi International,27.77083333,-97.50111111
KCRP,KCRP,Corpus Christi International,27.77111111,-97.50111111
KCRP,KCRP,Corpus Christi International,27.77222222,-97.5025
KCRP,KCRP,Corpus Christi International,27.77027778,-97.50111111
KCRP,KCRP,Corpus Christi International,27.77222222,-97.5025
KCRS,KCRS,C David Campbell Field-Corsicana Municipal,32.0275,-96.39805556
KCRS,KCRS,C David Campbell Field-Corsicana Municipal,32.02805556,-96.40055556
KCRW,KCRW,Kanawha,38.37277778,-81.59305556
KCRW,KCRW,Yeager,38.37277778,-81.59305556
KCRW,KCRW,Yeager,38.37305556,-81.59305556
KCRW,KCRW,Yeager,38.37583333,-81.59305556
KCRW,KCRW,Yeager,38.37305556,-81.59305556
KCRW,KCRW,Yeager,38.37583333,-81.59305556
KCRW,KCRW,Yeager,38.37611111,-81.59277778
KCRX,KCRX,Roscoe Turner,34.915,-88.60361111
KCSE,KCSE,Buckhorn Ranch,38.85194444,-106.9322222
KCSE,KCSE,Buckhorn Ranch,38.85194444,-106.9327778
KCSE,KCSE,Crested Butte Airpark,38.85194444,-106.9327778
KCSG,KCSG,Columbus Metropolitan,32.51611111,-84.93888889
KCSG,KCSG,Columbus Metropolitan,32.51638889,-84.93888889
KCSG,KCSG,Columbus Airport,32.51638889,-84.93888889
KCSG,KCSG,Columbus Metropolitan,32.51638889,-84.93888889
KCSG,KCSG,Columbus Airport,32.51638889,-84.93888889
KCSM,KCSM,Clinton/Sherman,35.33972222,-99.20027778
KCSM,KCSM,Sherman,35.33972222,-99.20027778
KCSM,KCSM,Clinton Sherman,35.33972222,-99.20055556
KCSN,KCSN,Carson,39.19166667,-119.7347222
KCSN,KCSN,Carson,39.19222222,-119.7325
KCSP,KCSP,Cape Spencer C.G. Helipad,58.19916667,-136.6388889
KCSP,KCSP,Cape Spencer C.G. Helipad,58.19916667,-136.64
KCSU,KCSU,Cape Sabine Airport,69.02694444,-163.8541667
KCSV,KCSV,Crossville Memorial-Whitson Field,35.95111111,-85.08472222
KCSV,KCSV,Crossville Memorial-Whitson Field,35.95138889,-85.085
KCTB,KCTB,Cut Bank Municipal,48.60833333,-112.3761111
KCTB,KCTB,Cut Bank International,48.60833333,-112.3761111
KCTB,KCTB,Cut Bank Municipal,48.60833333,-112.3761111
KCTB,KCTB,Cut Bank International,48.60833333,-112.3761111
KCTH,KCTH,Chester County G. O. Carlson,39.97888889,-75.86583333
KCTH,KCTH,Chester County G. O. Carlson,39.97888889,-75.86555556
KCTO,KCTO,Calverton Executive Airpark,40.915,-72.79194444
KCTW,KCTW,Cottonwood Airport,34.73,-112.0344444
KCTW,KCTW,Cottonwood Airport,34.73,-112.035
KCTW,KCTW,Cottonwood Airport,34.73,-112.0352778
KCTW,KCTW,Cottonwood Airport,34.73,-112.035
KCTW,KCTW,Cottonwood Airport,34.73,-112.0352778
KCTX,KCTX,Cortland County Chase Field,42.59305556,-76.21527778
KCTX,KCTX,Cortland County Chase Field,42.59277778,-76.215
KCTX,KCTX,Cortland County Chase Field,42.59277778,-76.21472222
KCTX,KCTX,Cortland County Chase Field,42.59277778,-76.215
KCTY,KCTY,Cross City Airport,29.63416667,-83.10611111
KCTY,KCTY,Cross City Airport,29.63555556,-83.10472222
KCUB,KCUB,Owens Field,33.97083333,-80.99555556
KCUB,KCUB,Jim Hamilton L. B. Owens,33.97055556,-80.99527778
KCUW,KCUW,Cube Cove Airport,57.94166667,-134.75
KCVA,KCVA,Civic Arena H/P,40.48333333,-80.21666667
KCVG,KCVG,Cincinnati/Northern Kentucky International,39.04777778,-84.66861111
KCVG,KCVG,Cincinnati/Northern Kentucky International,39.04888889,-84.66777778
KCVN,KCVN,Clovis Municipal,34.42722222,-103.0788889
KCVN,KCVN,Clovis Municipal,34.42638889,-103.0780556
KCVN,KCVN,Clovis Municipal,34.42527778,-103.0791667
KCVN,KCVN,Clovis Municipal,34.42666667,-103.0775
KCVN,KCVN,Clovis Municipal,34.42527778,-103.0791667
KCVN,KCVN,Clovis Municipal,34.42666667,-103.0775
KCVO,KCVO,Corvallis Municipal,44.49722222,-123.2869444
KCVO,KCVO,Corvallis Municipal,44.49722222,-123.2894444
KCVO,KCVO,Corvallis Municipal,44.49694444,-123.2894444
KCVO,KCVO,Corvallis Municipal,44.4975,-123.2880556
KCVS,KCVS,Cannon AFB,34.385,-103.3238889
KCVS,KCVS,Cannon AFB,34.38277778,-103.3222222
KCVS,KCVS,Cannon AFB,34.3825,-103.3225
KCVS,KCVS,Cannon AFB,34.38277778,-103.3222222
KCVS,KCVS,Cannon AFB,34.3825,-103.3225
KCVX,KCVX,Charlevoix Municipal,45.30416667,-85.275
KCVX,KCVX,Charlevoix Municipal,45.30472222,-85.27527778
KCWA,KCWA,Central Wisconsin,44.78222222,-89.65916667
KCWA,KCWA,Central Wisconsin,44.7775,-89.66666667
KCWI,KCWI,Clinton Municipal,41.82944444,-90.33194444
KCWI,KCWI,Clinton Municipal,41.83083333,-90.32888889
KCWS,KCWS,Center Island Airport,48.49,-122.8322222
KCXC,KCXC,Chitina Airport,61.58333333,-144.4277778
KCXC,KCXC,Chitina Airport,61.58277778,-144.4272222
KCXC,KCXC,Chitina Airport,61.58333333,-144.4297222
KCXC,KCXC,Chitina Airport,61.58277778,-144.4272222
KCXC,KCXC,Chitina Airport,61.58333333,-144.4297222
KCXF,KCXF,Coldfoot Airport,67.24944444,-150.2061111
KCXF,KCXF,Coldfoot Airport,67.25222222,-150.2038889
KCXL,KCXL,Calexico International,32.66944444,-115.5125
KCXL,KCXL,Calexico International,32.66944444,-115.5133333
KCXL,KCXL,Calexico International,32.6675,-115.5175
KCXL,KCXL,Calexico International,32.66944444,-115.5133333
KCXL,KCXL,Calexico International,32.6675,-115.5175
KCXO,KCXO,Lone Star Executive,30.35194444,-95.41444444
KCXO,KCXO,Lone Star Executive,30.35222222,-95.41444444
KCXO,KCXO,Lone Star Executive,30.35333333,-95.415
KCXO,KCXO,Conroe North Houston Regional,30.35333333,-95.415
KCXO,KCXO,Lone Star Executive,30.35222222,-95.41444444
KCXO,KCXO,Conroe North Houston Regional,30.35333333,-95.415
KCYF,KCYF,Chefornak Airport,60.14916667,-164.2855556
KCYF,KCYF,Chefornak Airport,60.15361111,-164.2847222
KCYF,KCYF,Chefornak Airport,60.13666667,-164.2791667
KCYF,KCYF,Chefornak Airport,60.13694444,-164.2791667
KCYF,KCYF,Chefornak Airport,60.14916667,-164.2855556
KCYF,KCYF,Chefornak Airport,60.13694444,-164.2791667
KCYM,KCYM,Chatham Airport,57.51527778,-134.9444444
KCYS,KCYS,Cheyenne Regional/Jerry Olson Field,41.15583333,-104.8122222
KCYS,KCYS,Cheyenne Regional/Jerry Olson Field,41.15555556,-104.8105556
KCYT,KCYT,Yakataga,60.08,-142.4944444
KCYT,KCYT,Yakataga,60.08194444,-142.4936111
KCYT,KCYT,Yakataga,60.08083333,-142.4955556
KCYT,KCYT,Yakataga,60.08194444,-142.4936111
KCYT,KCYT,Yakataga,60.08083333,-142.4955556
KCZC,KCZC,Copper Center 2,61.94111111,-145.2941667
KCZF,KCZF,Cape Romanzof AFS,61.78111111,-166.0363889
KCZF,KCZF,Cape Romanzof LRRS,61.78027778,-166.0386111
KCZF,KCZF,Cape Romanzof Airport,61.78027778,-166.0386111
KCZF,KCZF,Cape Romanzof LRRS,61.78027778,-166.0386111
KCZN,KCZN,Chisana Airport,62.07055556,-142.0477778
KCZN,KCZN,Chisana Airport,62.07111111,-142.0483333
KCZN,KCZN,Chisana Airport,62.07166667,-142.0494444
KCZN,KCZN,Chisana Airport,62.07111111,-142.0483333
KCZN,KCZN,Chisana Airport,62.07166667,-142.0494444
KCZO,KCZO,Chistochina Airport,62.56361111,-144.6688889
KCZO,KCZO,Chistochina Airport,62.56222222,-144.6725
KCZO,KCZO,Chistochina Airport,62.56361111,-144.6688889
KCZO,KCZO,Chistochina Airport,62.56222222,-144.6725
KCZP,KCZP,Cape Pole Airport,55.965,-133.7933333
KDAB,KDAB,Daytona Beach Regional,29.1825,-81.05277778
KDAB,KDAB,Daytona Beach International,29.1825,-81.05277778
KDAB,KDAB,Daytona Beach International,29.18,-81.05805556
KDAG,KDAG,Barstow-Daggett,34.85388889,-116.7861111
KDAG,KDAG,Barstow/Daggett,34.85388889,-116.7861111
KDAG,KDAG,Barstow/Daggett,34.85361111,-116.7866667
KDAL,KDAL,Dallas Love Field,32.84694444,-96.85333333
KDAL,KDAL,Dallas Love Field,32.84694444,-96.85138889
KDAL,KDAL,Dallas Love Field,32.84722222,-96.85166667
KDAL,KDAL,Dallas Love Field,32.84583333,-96.85083333
KDAN,KDAN,Danville Regional,36.57305556,-79.335
KDAN,KDAN,Danville Regional,36.57277778,-79.33611111
KDAN,KDAN,Danville Regional,36.5725,-79.33638889
KDAN,KDAN,Danville Regional,36.57277778,-79.33611111
KDAN,KDAN,Danville Regional,36.5725,-79.33638889
KDAY,KDAY,James M Cox/Dayton International,39.90111111,-84.22
KDAY,KDAY,James M Cox/Dayton International,39.90222222,-84.21944444
KDBN,KDBN,W H Bud Barron,32.56416667,-82.98666667
KDBN,KDBN,W H Bud Barron,32.56444444,-82.98527778
KDBN,KDBN,W H Bud Barron,32.56472222,-82.985
KDBN,KDBN,W H Bud Barron,32.56444444,-82.98527778
KDBN,KDBN,W H Bud Barron,32.56472222,-82.985
KDBQ,KDBQ,Dubuque Regional,42.41,-90.71083333
KDBQ,KDBQ,Dubuque Regional,42.40194444,-90.70944444
KDCA,KDCA,Ronald Reagan Washington National,38.85166667,-77.03694444
KDCA,KDCA,Ronald Reagan Washington National,38.85194444,-77.03777778
KDCA,KDCA,Ronald Reagan Washington National,38.85138889,-77.03777778
KDCA,KDCA,Ronald Reagan Washington National,38.85194444,-77.03777778
KDCA,KDCA,Ronald Reagan Washington National,38.85138889,-77.03777778
KDCK,KDCK,Dahl Creek Airport,66.94388889,-156.9019444
KDCK,KDCK,Dahl Creek Airport,66.94333333,-156.9047222
KDCK,KDCK,Dahl Creek Airport,66.9425,-156.8913889
KDCK,KDCK,Dahl Creek Airport,66.94333333,-156.9047222
KDCK,KDCK,Dahl Creek Airport,66.9425,-156.8913889
KDCU,KDCU,Pryor Field Regional,34.65277778,-86.94527778
KDCU,KDCU,Pryor Field Regional,34.65416667,-86.94527778
KDDC,KDDC,Dodge City Regional,37.76166667,-99.965
KDDC,KDDC,Dodge City Regional,37.76305556,-99.96555556
KDDP,KDDP,Dorado Airport,18.46388889,-66.29333333
KDEC,KDEC,Decatur Airport,39.83416667,-88.86861111
KDEC,KDEC,Decatur Airport,39.83444444,-88.86555556
KDEH,KDEH,Decorah Municipal,43.27472222,-91.73888889
KDEH,KDEH,Decorah Municipal,43.27555556,-91.73944444
KDEN,KDEN,Stapleton International,39.77444444,-104.8797222
KDEN,KDEN,Denver International,39.86166667,-104.6730556
KDET,KDET,Detroit City,42.40666667,-83.00833333
KDET,KDET,Coleman A. Young Municipal,42.40666667,-83.00833333
KDET,KDET,Coleman A. Young Municipal,42.40916667,-83.00972222
KDET,KDET,Coleman A. Young Municipal,42.40944444,-83.01027778
KDET,KDET,Coleman A. Young Municipal,42.40916667,-83.00972222
KDET,KDET,Coleman A. Young Municipal,42.40944444,-83.01027778
KDFI,KDFI,Defiance Memorial,41.33722222,-84.42888889
KDFI,KDFI,Defiance Memorial,41.3375,-84.42888889
KDFW,KDFW,Dallas Fort Worth Regional,32.89444444,-97.02972222
KDFW,KDFW,Dallas/Fort Worth International,32.89638889,-97.04111111
KDFW,KDFW,Dallas/Fort Worth International,32.89694444,-97.03805556
KDFW,KDFW,Dallas/Fort Worth International,32.89722222,-97.03777778
KDFW,KDFW,Dallas/Fort Worth International,32.89694444,-97.03805556
KDFW,KDFW,Dallas/Fort Worth International,32.89722222,-97.03777778
KDGB,KDGB,Danger Bay Airport,58.13333333,-152.55
KDGW,KDGW,Converse County,42.79722222,-105.3861111
KDGW,KDGW,Converse County,42.79722222,-105.3858333
KDHN,KDHN,Dothan Regional,31.32,-85.44833333
KDHN,KDHN,Dothan Regional,31.32111111,-85.44944444
KDHT,KDHT,Dalhart Municipal,36.0225,-102.5472222
KDHT,KDHT,Dalhart Municipal,36.0225,-102.5475
KDIK,KDIK,Dickinson Municipal,46.79666667,-102.7963889
KDIK,KDIK,Dickinson - Theodore Roosevelt Regional,46.79722222,-102.8019444
KDIO,KDIO,Diomede Heliport,65.75,-168.95
KDIO,KDIO,Diomede Heliport,65.75861111,-168.9530556
KDJN,KDJN,Delta Junction Airport,64.05055556,-145.7172222
KDJN,KDJN,Delta Junction Airport,64.05,-145.7225
KDJN,KDJN,Delta Junction Airport,64.05055556,-145.7172222
KDJN,KDJN,Delta Junction Airport,64.05,-145.7225
KDKK,KDKK,Chautauqua County/Dunkirk,42.49333333,-79.27194444
KDKK,KDKK,Chautauqua County/Dunkirk,42.49388889,-79.27111111
KDKK,KDKK,Chautauqua County/Dunkirk,42.49333333,-79.27194444
KDKK,KDKK,Chautauqua County/Dunkirk,42.49388889,-79.27111111
KDLF,KDLF,Laughlin AFB,29.35972222,-100.7772222
KDLF,KDLF,Laughlin AFB,29.35944444,-100.7780556
KDLG,KDLG,Dillingham Airport,59.04166667,-158.5066667
KDLG,KDLG,Dillingham Airport,59.04472222,-158.5055556
KDLH,KDLH,Duluth International,46.8425,-92.19027778
KDLH,KDLH,Duluth International,46.84194444,-92.19388889
KDLH,KDLH,Duluth International,46.84194444,-92.19361111
KDLH,KDLH,Duluth International,46.84222222,-92.19361111
KDLH,KDLH,Duluth International,46.84194444,-92.19333333
KDLL,KDLL,Dillon County,34.44916667,-79.36861111
KDLO,KDLO,Dolomi Airport,55.12222222,-132.05
KDLS,KDLS,The Dalles Municipal,45.61944444,-121.1647222
KDLS,KDLS,Columbia Gorge Regional/The Dalles Municipal,45.61861111,-121.1672222
KDLS,KDLS,Columbia Gorge Regional/The Dalles Municipal,45.61944444,-121.1683333
KDLS,KDLS,Columbia Gorge Regional/The Dalles Municipal,45.61861111,-121.1672222
KDLS,KDLS,Columbia Gorge Regional/The Dalles Municipal,45.61944444,-121.1683333
KDMA,KDMA,Davis Monthan AFB,32.16638889,-110.8825
KDMA,KDMA,Davis Monthan AFB,32.16638889,-110.8830556
KDMN,KDMN,Deming Municipal,32.2625,-107.7188889
KDMO,KDMO,Sedalia Memorial,38.7075,-93.17583333
KDMO,KDMO,Sedalia Regional,38.7075,-93.17583333
KDMO,KDMO,Sedalia Memorial,38.7075,-93.17583333
KDMO,KDMO,Sedalia Regional,38.7075,-93.17583333
KDNC,KDNC,Duncan Canal Airport,56.75694444,-133.2216667
KDNE,KDNE,Dallas North,33.07888889,-96.73833333
KDNL,KDNL,Daniel Field,33.46694444,-82.03833333
KDNL,KDNL,Daniel Field,33.46638889,-82.03944444
KDNL,KDNL,Daniel Field,33.46666667,-82.03944444
KDNL,KDNL,Daniel Field,33.46638889,-82.03944444
KDNL,KDNL,Daniel Field,33.46666667,-82.03944444
KDNN,KDNN,Dalton Municipal,34.72194444,-84.86916667
KDNN,KDNN,Dalton Municipal,34.72305556,-84.87027778
KDNV,KDNV,Vermillon County,40.19722222,-87.59694444
KDNV,KDNV,Vermilion Regional,40.19972222,-87.59555556
KDOF,KDOF,Dora Bay Airport,55.23333333,-132.2166667
KDOV,KDOV,Dover AFB,39.12694444,-75.46444444
KDOV,KDOV,Dover AFB,39.12944444,-75.46583333
KDPA,KDPA,Du Page County,41.91555556,-88.24666667
KDPG,KDPG,Michael AAF,40.19944444,-112.9366667
KDPG,KDPG,Michael AAF,40.19944444,-112.9375
KDPG,KDPG,Michael AAF,40.1975,-112.935
KAA8,KAA8,Badami,70.1375,-147.0305556
KDQC,KDQC,Sebastian Municipal,27.81277778,-80.49555556
KDQC,KDQC,Sebastian Municipal,27.81333333,-80.49555556
KDQD,KDQD,Allen H Tigert,42.64166667,-111.58
KDQD,KDQD,Allen H Tigert,42.64861111,-111.5819444
KDQE,KDQE,Holtville Airport,32.84027778,-115.2675
KDQE,KDQE,Holtville Airport,32.845,-115.2686111
KDQG,KDQG,Springfield Robertson County,36.53722222,-86.92055556
KDQG,KDQG,Springfield Robertson County,36.53722222,-86.92083333
KDQG,KDQG,Springfield Robertson County,36.53666667,-86.92111111
KDQG,KDQG,Springfield Robertson County,36.53722222,-86.92055556
KDQG,KDQG,Springfield Robertson County,36.53666667,-86.92111111
KDQH,KDQH,Alpine Air Strip,70.34833333,-150.9316667
KDQH,KDQH,Alpine Airstrip,70.34416667,-150.9447222
KFVL,KFVL,Colusa Airport,39.17916667,-121.9933333
KDQI,KDQI,Colusa Airport,39.17916667,-121.9933333
KDQI,KDQI,Colusa County,39.17888889,-121.9933333
KDQJ,KDQJ,Weydahl Field,47.39277778,-102.7708333
KDQJ,KDQJ,Weydahl Field,47.39138889,-102.7719444
KDQJ,KDQJ,Dunn County Weydahl Field,47.39138889,-102.7719444
KDQJ,KDQJ,Weydahl Field,47.39277778,-102.7708333
KDQJ,KDQJ,Dunn County Weydahl Field,47.39138889,-102.7719444
KDQK,KDQK,Wheeler-Sack AAF,44.05,-75.73305556
KDQK,KDQK,Wheeler-Sack AAF,44.05555556,-75.72
KDQK,KDQK,Wheeler-Sack AAF,44.05583333,-75.71944444
KDQK,KDQK,Wheeler-Sack AAF,44.05555556,-75.72
KDQK,KDQK,Wheeler-Sack AAF,44.05583333,-75.71944444
KDQK,KDQK,Wheeler-Sack AAF,44.05555556,-75.71972222
KDQL,KDQL,Lake Hood Strip,61.18694444,-149.9652778
KDQL,KDQL,Lake Hood Strip,61.18666667,-149.9652778
KDQL,KDQL,Lake Hood,61.18666667,-149.9652778
KDQN,KDQN,New Smyrna Beach Municipal,29.05444444,-80.94805556
KDQN,KDQN,New Smyrna Beach Municipal,29.05555556,-80.94888889
KDQO,KDQO,Delhi Municipal,32.41083333,-91.49861111
KDQP,KDQP,Marshall Field,38.23638889,-89.35861111
KDQQ,KDQQ,Cozad Municipal,40.86916667,-100.0036111
KDQQ,KDQQ,Cozad Municipal,40.86972222,-100.0041667
KDQR,KDQR,Grand Canyon West,35.98861111,-113.81
KDQR,KDQR,Grand Canyon West,35.99027778,-113.8163889
KDQR,KDQR,Grand Canyon West,35.98611111,-113.8169444
KDQS,KDQS,Bar Ten Airstrip,36.25972222,-113.2313889
KDQS,KDQS,Grand Canyon Bar Ten Airstrip,36.25638889,-113.2308333
KDQU,KDQU,Neets Bay,55.77888889,-131.6013889
KDQV,KDQV,Glacier Point,59.1025,-135.3822222
KDQW,KDQW,Hualapai,35.57222222,-113.2925
KDQX,KDQX,Tsui River Airport,60.07472222,-143.0866667
KXMR,KXMR,Cape Canaveral AFS,28.46722222,-80.56666667
KDQY,KDQY,Cape Canaveral AFS,28.46722222,-80.56666667
KDQY,KDQY,Cape Canaveral AFS Skid Strip,28.4675,-80.56666667
KDQZ,KDQZ,Platinum Mine,58.91166667,-161.7138889
KDRA,KDRA,Desert Rock,36.61944444,-116.0319444
KDRA,KDRA,Desert Rock,36.61944444,-116.0327778
KDRA,KDRA,Desert Rock,36.62,-116.0322222
KDRA,KDRA,Desert Rock,36.61944444,-116.0327778
KDRA,KDRA,Desert Rock,36.62,-116.0322222
KDRE,KDRE,Drummond Island Airport,46.01111111,-83.74583333
KDRE,KDRE,Drummond Island Airport,46.00944444,-83.74388889
KDRF,KDRF,Drift River Airport,60.58944444,-152.1577778
KDRF,KDRF,Drift River Airport,60.58888889,-152.1619444
KDRG,KDRG,Deering Airport,66.08083333,-162.7333333
KDRG,KDRG,Deering Airport,66.06944444,-162.7663889
KDRG,KDRG,Deering Airport,66.06916667,-162.7669444
KDRG,KDRG,Deering Airport,66.06944444,-162.7663889
KDRG,KDRG,Deering Airport,66.06916667,-162.7669444
KDRO,KDRO,La Plata County,37.15,-107.7511111
KDRO,KDRO,Durango La Plata County,37.15,-107.7511111
KDRO,KDRO,Durango La Plata County,37.15138889,-107.7538889
KDRO,KDRO,Durango La Plata County,37.16388889,-107.7422222
KDRO,KDRO,Durango La Plata County,37.15138889,-107.7538889
KDRO,KDRO,Durango La Plata County,37.16388889,-107.7422222
KDRO,KDRO,Durango La Plata County,37.15166667,-107.7538889
KDRT,KDRT,Del Rio International,29.37416667,-100.9272222
KDRU,KDRU,Drummond Airport,46.61666667,-113.2
KDRU,KDRU,Drummond Airport,46.62083333,-113.205
KDSI,KDSI,Destin-Ft. Walton Beach,30.4,-86.47138889
KDSI,KDSI,Destin Executive,30.4,-86.47138889
KDSI,KDSI,Destin Ft Walton Beach,30.4,-86.47138889
KDSI,KDSI,Destin Executive,30.4,-86.47138889
KDSM,KDSM,Des Moines Municipal,41.53388889,-93.65666667
KDSM,KDSM,Des Moines International,41.53388889,-93.65666667
KDSM,KDSM,Des Moines International,41.53388889,-93.66305556
KDSM,KDSM,Des Moines International,41.53416667,-93.6575
KDSM,KDSM,Des Moines International,41.53388889,-93.66305556
KDSM,KDSM,Des Moines International,41.53416667,-93.6575
KDSM,KDSM,Des Moines International,41.53388889,-93.66305556
KDTA,KDTA,Delta Airport,39.38305556,-112.5055556
KDTA,KDTA,Delta Municipal,39.37916667,-112.5083333
KDTA,KDTA,Delta Municipal,39.38055556,-112.5077778
KDTA,KDTA,Delta Municipal,39.38361111,-112.5022222
KDTA,KDTA,Delta Municipal,39.38055556,-112.5077778
KDTA,KDTA,Delta Municipal,39.38361111,-112.5022222
KDTH,KDTH,Furnace Creek,36.46388889,-116.8805556
KDTH,KDTH,Furnace Creek,36.46055556,-116.8797222
KDTL,KDTL,Detroit Lakes-Wething Field,46.82638889,-95.88611111
KDTL,KDTL,Detroit Lakes-Wething Field,46.82527778,-95.88555556
KDTN,KDTN,Shreveport Downtown,32.54027778,-93.745
KDTN,KDTN,Shreveport Downtown,32.54083333,-93.74388889
KDTO,KDTO,Denton Municipal,33.20055556,-97.19416667
KDTO,KDTO,Denton Municipal,33.20222222,-97.19805556
KDTO,KDTO,Denton Enterprise,33.20222222,-97.19805556
KDTO,KDTO,Denton Municipal,33.20222222,-97.19805556
KDTO,KDTO,Denton Enterprise,33.20222222,-97.19805556
KDTO,KDTO,Denton Enterprise,33.20194444,-97.19916667
KDTR,KDTR,Decatur,48.51,-122.8030556
KDTT,KDTT,Detroit Metropolitan Area,42.31277778,-83.17861111
KDTW,KDTW,Detroit Metro Wayne County,42.21666667,-83.34444444
KDTW,KDTW,Detroit Metro Wayne County,42.2125,-83.35333333
KDUA,KDUA,Eaker Field,33.93333333,-96.4
KDUC,KDUC,Halliburton Field,34.47222222,-97.95972222
KDUC,KDUC,Halliburton Field,34.47138889,-97.95972222
KDUF,KDUF,Pine Island,36.25333333,-75.78861111
KDUF,KDUF,Pine Island,36.25361111,-75.78861111
KDUG,KDUG,Bisbee Douglas International,31.46888889,-109.6030556
KDUG,KDUG,Bisbee Douglas International,31.46916667,-109.6036111
KDUG,KDUG,Bisbee Douglas International,31.46888889,-109.6038889
KDUG,KDUG,Bisbee Douglas International,31.46916667,-109.6036111
KDUG,KDUG,Bisbee Douglas International,31.46888889,-109.6038889
KDUJ,KDUJ,DuBois Jefferson County,41.17833333,-78.89888889
KDUJ,KDUJ,DuBois Regional,41.17833333,-78.89861111
KDUT,KDUT,Unalaska Airport,53.89583333,-166.5388889
KDUT,KDUT,Unalaska Airport,53.90027778,-166.5436111
KDUT,KDUT,Unalaska Airport,53.89888889,-166.545
KDUT,KDUT,Unalaska Airport,53.90027778,-166.5436111
KDUT,KDUT,Unalaska Airport,53.89888889,-166.545
KDVL,KDVL,Devils Lake Regional,48.11305556,-98.9075
KDVL,KDVL,Devils Lake Regional,48.11472222,-98.90833333
KDVL,KDVL,Devils Lake Regional,48.11666667,-98.91
KDVL,KDVL,Devils Lake Regional,48.11472222,-98.90833333
KDVL,KDVL,Devils Lake Regional,48.11666667,-98.91
KDVN,KDVN,Davenport Municipal,41.61138889,-90.58916667
KDVN,KDVN,Davenport Municipal,41.61027778,-90.58833333
KDVT,KDVT,Phoenix - Deer Valley,33.68333333,-112.0833333
KDVT,KDVT,Phoenix - Deer Valley,33.68833333,-112.0825
KDWA,KDWA,Yolo County,38.57916667,-121.8566667
KDWA,KDWA,Yolo County,38.57944444,-121.8569444
KDWH,KDWH,David Wayne Hooks Memorial,30.06388889,-95.55972222
KDWH,KDWH,David Wayne Hooks Memorial,30.06194444,-95.55277778
KDWH,KDWH,David Wayne Hooks Memorial,30.06166667,-95.55277778
KDWS,KDWS,Walt Disney World,28.38361111,-81.55
KDXR,KDXR,Danbury Municipal,41.37166667,-73.48027778
KDXR,KDXR,Danbury Municipal,41.37166667,-73.48222222
KDYS,KDYS,Dyess AFB,32.42,-99.85666667
KDYS,KDYS,Dyess AFB,32.41833333,-99.85666667
KDYS,KDYS,Dyess AFB,32.42055556,-99.85472222
KDYS,KDYS,Dyess AFB,32.41833333,-99.85666667
KDYS,KDYS,Dyess AFB,32.42055556,-99.85472222
KEAA,KEAA,Eagle Airport,64.77666667,-141.1486111
KEAA,KEAA,Eagle Airport,64.77805556,-141.1497222
KEAG,KEAG,Eagle Creek Strip,67.56222222,-162.9752778
KEAN,KEAN,Phifer Field,42.05555556,-104.9322222
KEAN,KEAN,Phifer Airfield,42.05555556,-104.9286111
KEAN,KEAN,Phifer Airfield,42.05611111,-104.9386111
KEAN,KEAN,Phifer Airfield,42.05555556,-104.9286111
KEAN,KEAN,Phifer Airfield,42.05611111,-104.9386111
KEAN,KEAN,Phifer Airfield,42.05555556,-104.9286111
KEAN,KEAN,Phifer Airfield,42.05555556,-104.9283333
KEAR,KEAR,Kearney Regional,40.72833333,-98.99888889
KEAR,KEAR,Kearney Regional,40.72694444,-99.00666667
KEAT,KEAT,Pangborn Memorial,47.39972222,-120.2077778
KEAT,KEAT,Pangborn Memorial,47.39805556,-120.2058333
KEAT,KEAT,Pangborn Memorial,47.39888889,-120.2069444
KEAT,KEAT,Pangborn Memorial,47.39805556,-120.2058333
KEAT,KEAT,Pangborn Memorial,47.39888889,-120.2069444
KEAU,KEAU,Eau Claire Municipal,44.86444444,-91.48722222
KEAU,KEAU,Chippewa Valley Regional,44.86444444,-91.48722222
KEAU,KEAU,Chippewa Valley Regional,44.86583333,-91.48416667
KECA,KECA,Iosco County,44.31333333,-83.42333333
KECA,KECA,Iosco County,44.31277778,-83.42222222
KECG,KECG,Elizabeth,36.25916667,-76.17305556
KECG,KECG,Elizabeth City CGAS/Regional,36.25916667,-76.17305556
KECG,KECG,Elizabeth City CGAS/Regional,36.26055556,-76.17444444
KECP,KECP,Northwest Florida Beaches International,30.35777778,-85.79888889
KECP,KECP,Northwest Florida Beaches International,30.35833333,-85.79555556
KECS,KECS,Mondell Field,43.88333333,-104.3125
KECS,KECS,Mondell Field,43.88555556,-104.3180556
KECS,KECS,Mondell Field,43.88416667,-104.3144444
KECS,KECS,Mondell Field,43.88555556,-104.3180556
KECS,KECS,Mondell Field,43.88416667,-104.3144444
KECU,KECU,Edwards County,29.94694444,-100.1738889
KEDA,KEDA,Edna Bay Airport,55.93638889,-133.6555556
KEDE,KEDE,Northeastern Regional,36.02861111,-76.56972222
KEDE,KEDE,Northeastern Regional,36.02777778,-76.56722222
KEDF,KEDF,Elmendorf AFB,61.25361111,-149.7916667
KEDF,KEDF,Elmendorf AFB,61.25305556,-149.7938889
KEDF,KEDF,Elmendorf AFB,61.25138889,-149.8063889
KEDW,KEDW,Edwards AFB,34.9,-117.8666667
KEDW,KEDW,Edwards AFB,34.91638889,-117.8625
KEDW,KEDW,Edwards AFB,34.91805556,-117.8791667
KEDW,KEDW,Edwards AFB,34.91638889,-117.8625
KEDW,KEDW,Edwards AFB,34.91805556,-117.8791667
KEED,KEED,Needles Airport,34.75833333,-114.62
KEED,KEED,Needles Airport,34.76638889,-114.6233333
KEEK,KEEK,Eek Airport,60.21666667,-162.0166667
KEEK,KEEK,Eek Airport,60.21361111,-162.0438889
KEEN,KEEN,Dillant Hopkins,42.90083333,-72.27083333
KEEN,KEEN,Dillant Hopkins,42.89833333,-72.27083333
KEFB,KEFB,Eight Fathom Bight Airport,58,-135.7333333
KEFD,KEFD,Ellington Field,29.60722222,-95.15861111
KEFD,KEFD,Ellington,29.60722222,-95.15861111
KEFD,KEFD,Ellington Field,29.60722222,-95.15861111
KEFD,KEFD,Ellington,29.60722222,-95.15861111
KEFK,KEFK,Newport Airport,44.88944444,-72.23
KEFK,KEFK,Newport State,44.88944444,-72.23
KEFK,KEFK,Newport State,44.88888889,-72.22916667
KEFK,KEFK,Newport State,44.88805556,-72.22861111
KEFK,KEFK,Northeast Kingdom International,44.88805556,-72.22861111
KEFK,KEFK,Newport State,44.88888889,-72.22916667
KEFK,KEFK,Northeast Kingdom International,44.88805556,-72.22861111
KEGA,KEGA,Chenega Airport,60.28333333,-148.0833333
KEGE,KEGE,Eagle County Regional,39.64361111,-106.9138889
KEGE,KEGE,Eagle County Regional,39.64277778,-106.9325
KEGE,KEGE,Eagle County Regional,39.64277778,-106.9158333
KEGE,KEGE,Eagle County Regional,39.64277778,-106.9325
KEGE,KEGE,Eagle County Regional,39.64277778,-106.9158333
KEGI,KEGI,Duke Field (Eglin Af Aux Nr 3),30.65027778,-86.52694444
KEGI,KEGI,Duke Field,30.65027778,-86.52277778
KEGI,KEGI,Duke Field,30.64861111,-86.52194444
KEGI,KEGI,Duke Field,30.65027778,-86.52277778
KEGI,KEGI,Duke Field,30.64861111,-86.52194444
KEGP,KEGP,Eagle Pass Airport,28.70222222,-100.4805556
KEGP,KEGP,Eagle Pass Municipal,28.70222222,-100.4805556
KEGT,KEGT,Wellington Municipal,37.32361111,-97.38833333
KEGT,KEGT,Wellington Municipal,37.325,-97.38833333
KEGV,KEGV,Eagle River Union,45.93166667,-89.26888889
KEGV,KEGV,Eagle River Union,45.93222222,-89.26833333
KEGX,KEGX,Egegik Airport,58.20777778,-157.3702778
KEGX,KEGX,Egegik Airport,58.18555556,-157.3755556
KEGX,KEGX,Egegik Airport,58.18444444,-157.3747222
KEHM,KEHM,Cape Newenham AFS,58.64722222,-162.0605556
KEHM,KEHM,Cape Newenham LRRS,58.64638889,-162.0627778
KEHM,KEHM,Cape Newenham LRRS,58.64805556,-162.0630556
KEHM,KEHM,Cape Newenham LRRS,58.64638889,-162.0627778
KEHM,KEHM,Cape Newenham LRRS,58.64805556,-162.0630556
KEHR,KEHR,Eagle Harbor Airport,57.41666667,-152.7166667
KEHT,KEHT,Rentschler,41.75777778,-72.62
KEHT,KEHT,Rentschler Heliport,41.75333333,-72.62833333
KEIL,KEIL,Eielson AFB,64.665,-147.0972222
KEIL,KEIL,Eielson AFB,64.66555556,-147.1013889
KEKA,KEKA,Eureka Airport,40.805,-124.115
KEKA,KEKA,Murray Field,40.80444444,-124.1138889
KEKA,KEKA,Murray Field,40.80333333,-124.1127778
KEKI,KEKI,Elkhart Municipal,41.72222222,-85.99222222
KEKI,KEKI,Elkhart Municipal,41.72222222,-85.99222222
KEKI,KEKI,Elkhart Municipal,41.72222222,-85.99222222
KEKI,KEKI,Elkhart Municipal,41.71944444,-86.00166667
KEKI,KEKI,Elkhart Municipal,41.71944444,-86.00333333
KEKI,KEKI,Elkhart Municipal,41.71944444,-86.00166667
KEKI,KEKI,Elkhart Municipal,41.71944444,-86.00333333
KEKN,KEKN,Elkins-Randolph County-Jennings Randolph Field,38.88944444,-79.85777778
KEKN,KEKN,Elkins-Randolph County-Jennings Randolph Field,38.88944444,-79.85722222
KEKO,KEKO,Elko Regional,40.82388889,-115.7897222
KEKO,KEKO,Elko Regional,40.825,-115.7916667
KEKO,KEKO,Elko Regional,40.825,-115.7913889
KEKO,KEKO,Elko Regional,40.825,-115.7916667
KEKO,KEKO,Elko Regional,40.825,-115.7913889
KEKX,KEKX,Addington Field,37.68694444,-85.92388889
KEKX,KEKX,Addington Field,37.68611111,-85.925
KEKY,KEKY,Bessemer Airport,33.31277778,-86.92583333
KEKY,KEKY,Bessemer Airport,33.3125,-86.92638889
KELA,KELA,Eagle Lake Airport,29.58333333,-96.33333333
KELA,KELA,Eagle Lake Airport,29.60055556,-96.32194444
KELA,KELA,Eagle Lake Airport,29.6,-96.32194444
KELD,KELD,El Dorado Airport,33.22055556,-92.81472222
KELD,KELD,Goodwin Field,33.22055556,-92.81472222
KELD,KELD,South Arkansas Regional at Goodwin Field,33.22083333,-92.81333333
KELD,KELD,South Arkansas Regional at Goodwin Field,33.22111111,-92.81166667
KELI,KELI,Elim Airport,64.61361111,-162.2702778
KELI,KELI,Elim Airport,64.615,-162.2705556
KELM,KELM,Elmira/Corning Regional,42.16083333,-76.89527778
KELM,KELM,Elmira/Corning Regional,42.16,-76.89166667
KELM,KELM,Elmira/Corning Regional,42.15972222,-76.89194444
KELM,KELM,Elmira/Corning Regional,42.16,-76.89166667
KELM,KELM,Elmira/Corning Regional,42.15972222,-76.89194444
KELM,KELM,Elmira/Corning Regional,42.15972222,-76.89166667
KELN,KELN,Bowers Field,47.03388889,-120.5302778
KELN,KELN,Bowers Field,47.03305556,-120.5305556
KELP,KELP,El Paso International,31.80666667,-106.3772222
KELP,KELP,El Paso International,31.80722222,-106.3775
KELP,KELP,El Paso International,31.80722222,-106.3763889
KELP,KELP,El Paso International,31.80722222,-106.3775
KELP,KELP,El Paso International,31.80722222,-106.3763889
KELV,KELV,Elfin Cove Seaplane Base,58.2,-136.3166667
KELW,KELW,Ellamar Seaplane Base,60.89333333,-146.7083333
KELY,KELY,Ely Airport/Yelland Field,39.30194444,-114.8419444
KELY,KELY,Ely Airport/Yelland Field,39.29972222,-114.8419444
KEMK,KEMK,Emmonak Airport,62.78611111,-164.4908333
KEMM,KEMM,Kemmerer Municipal,41.825,-110.5583333
KEMM,KEMM,Kemmerer Municipal,41.82416667,-110.5569444
KEMP,KEMP,Emporia Municipal,38.3325,-96.19083333
KEMP,KEMP,Emporia Municipal,38.33055556,-96.19
KEMT,KEMT,El Monte Airport,34.08583333,-118.0336111
KEMT,KEMT,El Monte Airport,34.08611111,-118.0347222
KEMT,KEMT,San Gabriel Valley,34.08611111,-118.0347222
KEMT,KEMT,El Monte Airport,34.08611111,-118.0347222
KEMT,KEMT,San Gabriel Valley,34.08611111,-118.0347222
KEMT,KEMT,El Monte Airport,34.08611111,-118.0347222
KEMT,KEMT,San Gabriel Valley,34.08611111,-118.0347222
KENA,KENA,Kenai Municipal,60.5675,-151.2511111
KENA,KENA,Kenai Municipal,60.57333333,-151.2447222
KEND,KEND,Vance AFB,36.33972222,-97.91583333
KEND,KEND,Vance AFB,36.33916667,-97.91638889
KEND,KEND,Vance AFB,36.33972222,-97.91722222
KEND,KEND,Vance AFB,36.33916667,-97.91638889
KEND,KEND,Vance AFB,36.33972222,-97.91722222
KENL,KENL,Centralia Municipal,38.51222222,-89.09222222
KENL,KENL,Centralia Municipal,38.515,-89.09111111
KENN,KENN,Nenana Municipal,64.54638889,-149.0833333
KENN,KENN,Nenana Municipal,64.54722222,-149.0738889
KENN,KENN,Nenana Municipal,64.54888889,-149.0744444
KENV,KENV,Wendover Airport,40.71861111,-114.0338889
KENV,KENV,Wendover Airport,40.71861111,-114.0308333
KENV,KENV,Wendover Airport,40.71861111,-114.0286111
KENV,KENV,Wendover Airport,40.71861111,-114.0308333
KENV,KENV,Wendover Airport,40.71861111,-114.0286111
KENW,KENW,Kenosha Regional,42.59583333,-87.92777778
KENW,KENW,Kenosha Regional,42.59555556,-87.92777778
KEOK,KEOK,Keokuk Municipal,40.45833333,-91.43
KEOK,KEOK,Keokuk Municipal,40.46,-91.42861111
KEPH,KEPH,Ephrata,47.30416667,-119.5125
KEPH,KEPH,Ephrata Municipal,47.30805556,-119.5169444
KERI,KERI,Erie International,42.08,-80.17861111
KERI,KERI,Erie International/Tom Ridge Field,42.08,-80.17861111
KERI,KERI,Erie International/Tom Ridge Field,42.08194444,-80.17611111
KERI,KERI,Erie International/Tom Ridge Field,42.08305556,-80.17388889
KERI,KERI,Erie International/Tom Ridge Field,42.08194444,-80.17611111
KERI,KERI,Erie International/Tom Ridge Field,42.08305556,-80.17388889
KERV,KERV,Kerrville Municipal/Louis Schreiner Field,29.97666667,-99.08555556
KESC,KESC,Delta County,45.72055556,-87.08666667
KESC,KESC,Delta County,45.72277778,-87.09361111
KESD,KESD,Orcas Island,48.70833333,-122.9125
KESD,KESD,Orcas Island,48.70833333,-122.9105556
KESF,KESF,Esler Regional,31.39527778,-92.29722222
KESF,KESF,Esler Regional,31.395,-92.29583333
KESN,KESN,Easton Municipal,38.80277778,-76.06777778
KESN,KESN,Easton/Newnam Field,38.80416667,-76.06888889
KESP,KESP,Stroudsburg Pocono,41.03555556,-75.16083333
KESP,KESP,Stroudsburg Pocono,41.03583333,-75.16055556
KETN,KETN,Eastland Municipal,32.41166667,-98.8125
KETN,KETN,Eastland Municipal,32.415,-98.80972222
KETS,KETS,Enterprise Municipal,31.3,-85.9
KETS,KETS,Enterprise Municipal,31.29972222,-85.89972222
KEUE,KEUE,Eureka Airport,39.60722222,-116.0016667
KEUE,KEUE,Eureka Airport,39.60361111,-116.0036111
KEUF,KEUF,Weedon Field,31.95111111,-85.12888889
KEUF,KEUF,Weedon Field,31.95138889,-85.12888889
KEUG,KEUG,Mahlon Sweet Field,44.12083333,-123.2175
KEUG,KEUG,Mahlon Sweet Field,44.12444444,-123.2119444
KEVC,KEVC,Eva Creek Airport,64.0425,-148.8611111
