origin_airport_code,dest_airport_code,airport_name,latitude,longitude
k01A,k01A,Afognak Lake Airport,58.10944444,-152.9066667
k03A,k03A,Bear Creek Mining Strip,65.54805556,-161.0716667
k04A,k04A,Lik Mining Camp,68.08333333,-163.1666667
k05A,k05A,Little Squaw Airport,67.57,-148.1838889
k06A,k06A,Kizhuyak Bay,57.74527778,-152.8827778
k07A,k07A,Klawock Seaplane Base,55.55472222,-133.1016667
k08A,k08A,Elizabeth Island Airport,59.15694444,-151.8291667
k09A,k09A,Augustin Island,59.36277778,-153.4305556
k1B1,k1B1,Columbia County,42.28888889,-73.71027778
k1B1,k1B1,Columbia County,42.29138889,-73.71027778
k1G4,k1G4,Grand Canyon West,35.99027778,-113.8163889
k1G4,k1G4,Grand Canyon West,35.98611111,-113.8169444
k1G4,k1G4,Grand Canyon West,35.99027778,-113.8163889
k1G4,k1G4,Grand Canyon West,35.98611111,-113.8169444
k1N7,k1N7,Blairstown Airport,40.97111111,-74.9975
k8F3,k8F3,Crosbyton Municipal,33.62388889,-101.2408333
kA01,kA01,Blair Lake,64.36416667,-147.3613889
kA01,kA01,Blair Lake,64.36361111,-147.3638889
kA02,kA02,Deadmans Bay Airport,57.06666667,-153.9377778
kA03,kA03,Hallo Bay Airport,58.4575,-154.0233333
kA04,kA04,Red Lake Airport,57.27722222,-154.3422222
kA05,kA05,Shell Lake Airport,61.96388889,-151.5558333
kA06,kA06,Navigator Airstrip,65.65555556,-165.3563889
kA07,kA07,Roland Norton Memorial Airstrip,66.76583333,-160.1525
kA07,kA07,Roland Norton Memorial,66.76611111,-160.1527778
kA08,kA08,Pillar Bay Airport,56.59805556,-134.2427778
kJOH,kJOH,Johnstone Point Airport,60.48138889,-146.5822222
kA09,kA09,Johnstone Point Airport,60.48222222,-146.5822222
kA09,kA09,Johnstone Point Airport,60.48166667,-146.5841667
kA09,kA09,Johnstone Point Airport,60.48222222,-146.5822222
kA09,kA09,Johnstone Point Airport,60.48166667,-146.5841667
kTLK,kTLK,Tikchik Lodge Airport,59.95555556,-158.4805556
kKTH,kKTH,Tikchik Lodge Airport,59.95555556,-158.4805556
kA11,kA11,Bell Creek Airport,60.78388889,-159.5402778
kA12,kA12,Cinnabar Airport,60.78527778,-158.8644444
kA13,kA13,Mountaintop Mine Airport,61.39027778,-157.9955556
kA14,kA14,Whitebear Airport,61.18888889,-159.8583333
kA15,kA15,Puviaq Airport,70.71861111,-154.3883333
kA15,kA15,Puviaq Airport,70.71555556,-154.4069444
kA16,kA16,Arley Lake Airport,70.74694444,-155.3608333
kA17,kA17,Port Vita Airport,58.06555556,-153.0725
kA18,kA18,Kantishna Airport,63.54166667,-150.9938889
kA18,kA18,Kantishna Airport,63.54111111,-150.995
kA18,kA18,Kantishna Airport,63.54166667,-150.9938889
kA18,kA18,Kantishna Airport,63.54111111,-150.995
kA20,kA20,Alpine Airstrip,70.34416667,-150.9447222
kA21,kA21,Serpentine Airport,65.85138889,-164.7027778
kA22,kA22,Driftwood Bay Airport,53.97277778,-166.8569444
kA23,kA23,Bradley Lake Airport,59.77611111,-151.9636111
kA24,kA24,Chilkat Lake Airport,59.33166667,-135.8966667
kA25,kA25,Nugget Creek Airport,59.28833333,-136.1738889
kA26,kA26,Ivotuk Airstrip,68.48333333,-155.7333333
kA27,kA27,Pogo Mines Airport,64.44,-144.9363889
kA28,kA28,Ayakulik River Airport,57.25388889,-154.4222222
kA29,kA29,Kiluda Bay Airport,57.32305556,-153.1494444
kA30,kA30,Terror Lake Airport,57.96388889,-153.0583333
kA31,kA31,Selief Bay Airport,58.98277778,-153.1833333
kA34,kA34,Laura Lake Airport,58.36194444,-152.3122222
kA36,kA36,Deep Bay Airport,55.56027778,-131.6555556
kA37,kA37,Kako Airport,61.89888889,-161.4380556
kA37,kA37,Kako Airport,61.89888889,-161.4397222
kA38,kA38,Molly Creek Airport,64.09722222,-143.2666667
kA39,kA39,Ptarmigan Lake Airport,61.86611111,-141.1597222
kA40,kA40,Cape Simpson Airport,71.05694444,-154.7283333
kA41,kA41,Kogru River Airport,70.57611111,-152.2711111
kA41,kA41,Kogru River Airport,70.57472222,-152.2588889
kA42,kA42,Teshepkuk Lake Airport,70.35833333,-153.1966667
kA43,kA43,Trident Basin Seaplane Base,57.78083333,-152.3911111
kA45,kA45,Lake Florence Airport,57.81666667,-134.5833333
kA46,kA46,Lake Hasselborg Airport,57.7,-134.2666667
kA47,kA47,Distin Lake Airport,57.61666667,-134.3666667
kA48,kA48,Port Hobron Airport,57.15,-153.15
kA49,kA49,Mooseville Airstrip Airport,70.28444444,-152.2119444
kA50,kA50,Big Bay Airport,58.5625,-152.5961111
kA51,kA51,Wien Lake Airport,64.35277778,-151.275
kA52,kA52,Silver Salmon Creek Airport,59.96388889,-152.6822222
kA53,kA53,Blear Lake Airport,64.33333333,-147.5
kA54,kA54,Cannery Bay Airport,53.68333333,-166.75
kA56,kA56,Johnsons Landing,56.03666667,-160.2661111
kVZK,kVZK,International Seafoods Airport,58.26666667,-157.5333333
kA57,kA57,International Seafoods Airport,58.26666667,-157.5333333
kA58,kA58,Cosna River Airport,64.5,-151.6666667
kA59,kA59,Ivatuk Airport,68.48777778,-155.7575
kA61,kA61,Cape Sarichef AFS,54.58333333,-164.9125
kA61,kA61,Cape Sarichef Airport,54.5825,-164.9144444
kA62,kA62,Taylor Mountain,60.86777778,-157.3919444
kA63,kA63,Coal Creek,65.31111111,-143.1352778
kA63,kA63,Coal Creek,65.31138889,-143.1355556
kA63,kA63,Coal Creek,65.31166667,-143.1341667
kA63,kA63,Coal Creek,65.31138889,-143.1355556
kA63,kA63,Coal Creek,65.31166667,-143.1341667
kA65,kA65,Karluk Portage Airport,57.53833333,-154.1644444
kA66,kA66,Hope Airport,60.90555556,-149.6238889
kA66,kA66,Hope Airport,60.90416667,-149.6238889
kA66,kA66,Hope Airport,60.90722222,-149.6227778
kA66,kA66,Hope Airport,60.90416667,-149.6238889
kA66,kA66,Hope Airport,60.90722222,-149.6227778
kA67,kA67,Viekoda Bay Airport,57.84944444,-153.1152778
kA69,kA69,Cathedral Strip,55.74,-162.1252778
kA70,kA70,Village Islands Airport,57.77416667,-153.5447222
kA71,kA71,Bear Cove Farm,59.73833333,-151.03
kA72,kA72,Chinitna Bay Airport,59.83333333,-152.5847222
kA73,kA73,McKinley National Park,63.7325,-148.9105556
kA74,kA74,Dog Fish Bay,59.24111111,-151.8772222
kA75,kA75,Malina Bay Airport,58.17194444,-152.8941667
kA76,kA76,Red Fox Bay Airport,58.46444444,-152.5930556
kA77,kA77,Shearwater Airport,57.34333333,-152.8972222
kA78,kA78,Lake,71.03,-154.4436111
kA79,kA79,Cape Simpson No. 1,71.50166667,-154.0338889
kA80,kA80,Cape Simpson No. 7,70.57388889,-155.3213889
kA81,kA81,Cape Simpson #1,70.66277778,-154.8366667
kA82,kA82,Nikiski Private Airstrip,60.69027778,-151.2888889
kA83,kA83,Petrof Point Airport,59.37638889,-150.765
kA84,kA84,Denali West Lodge Private,63.75555556,-147.93
kA85,kA85,Big River Airport,61.85944444,-154.2766667
kA87,kA87,Carry Inlet Airport,58.58305556,-152.4458333
kA89,kA89,Montague Island Airport,59.925,-147.5166667
kA90,kA90,Shannon Pond Airport,59.03916667,-158.4638889
kA91,kA91,Omalik Lagoon Airport,69.15555556,-163.4972222
kA92,kA92,Omolik Lagoon Airport,69.14805556,-163.5102778
kA93,kA93,Bradley Lake Project Airport,59.79166667,-151.2666667
kA94,kA94,Ice Strip,70.57416667,-155.3180556
kA95,kA95,Ice Strip,70.31194444,-153.2491667
kA96,kA96,Ice Strip,70.98083333,-157.095
kA97,kA97,Akulik Air Strip,68.98555556,-163.4797222
kA98,kA98,Deadfall Air Strip,69.17083333,-163.2563889
kA99,kA99,Eagle Creek Airport,68.67666667,-162.6469444
kAA1,kAA1,Ice Kong,59.95277778,-162.6169444
kAA4,kAA4,Glacier Split,59.63333333,-151.2083333
kAA5,kAA5,Selby Lake Airport,66.95583333,-155.615
kAAF,kAAF,Apalachicola Regional,29.7275,-85.0275
kAAF,kAAF,Apalachicola Regional Cleve Randolph Field,29.7275,-85.0275
kAAF,kAAF,Apalachicola Regional,29.7275,-85.0275
kAAF,kAAF,Apalachicola Regional Cleve Randolph Field,29.7275,-85.0275
kABE,kABE,Lehigh Valley International,40.65472222,-75.43833333
kABE,kABE,Lehigh Valley International,40.65222222,-75.44027778
kABE,kABE,Lehigh Valley International,40.65222222,-75.44055556
kABE,kABE,Lehigh Valley International,40.65222222,-75.44027778
kABE,kABE,Lehigh Valley International,40.65222222,-75.44055556
kABE,kABE,Lehigh Valley International,40.6525,-75.44027778
kABI,kABI,Abilene Regional,32.40944444,-99.67972222
kABI,kABI,Abilene Regional,32.41111111,-99.68166667
kABI,kABI,Abilene Regional,32.41138889,-99.68194444
kABL,kABL,Ambler River,67.0875,-157.8458333
kABQ,kABQ,Albuquerque International Sunport,35.04166667,-106.6063889
kABQ,kABQ,Albuquerque International Sunport,35.04027778,-106.6091667
kABQ,kABQ,Albuquerque International Sunport,35.03888889,-106.6083333
kABQ,kABQ,Albuquerque International Sunport,35.04027778,-106.6091667
kABQ,kABQ,Albuquerque International Sunport,35.03888889,-106.6083333
kABR,kABR,Aberdeen Regional,45.44972222,-98.42166667
kABR,kABR,Aberdeen Regional,45.44916667,-98.42194444
kABR,kABR,Aberdeen Regional,45.44833333,-98.4225
kABR,kABR,Aberdeen Regional,45.44666667,-98.4225
kABR,kABR,Aberdeen Regional,45.44916667,-98.42194444
kABR,kABR,Aberdeen Regional,45.44666667,-98.4225
kABY,kABY,Southwest Georgia Regional,31.53222222,-84.19611111
kABY,kABY,Southwest Georgia Regional,31.53555556,-84.19444444
kACB,kACB,Antrim County,44.98472222,-85.19916667
kACB,kACB,Antrim County,44.98861111,-85.19833333
kACK,kACK,Nantucket Memorial,41.25666667,-70.05972222
kACK,kACK,Nantucket Memorial,41.25305556,-70.06027778
kACK,kACK,Nantucket Memorial,41.25305556,-70.06
kACK,kACK,Nantucket Memorial,41.25305556,-70.06027778
kACK,kACK,Nantucket Memorial,41.25305556,-70.06
kACT,kACT,Waco Regional,31.61138889,-97.22861111
kACT,kACT,Waco Regional,31.61222222,-97.23027778
kACV,kACV,Arcata,40.97916667,-124.1075
kACV,kACV,Arcata,40.97805556,-124.1086111
kACV,kACV,Arcata,40.97777778,-124.1083333
kACV,kACV,California Redwood Coast Humboldt County,40.97777778,-124.1083333
kACV,kACV,Arcata,40.97805556,-124.1086111
kACV,kACV,California Redwood Coast Humboldt County,40.97777778,-124.1083333
kACY,kACY,Nafec Atlantic City,39.45611111,-74.57805556
kACY,kACY,Nafec Atl,39.45666667,-74.57777778
kACY,kACY,Atlantic City International,39.4575,-74.57805556
kACY,kACY,Atlantic City International,39.4575,-74.57722222
kADK,kADK,Adak NS,51.88277778,-176.6447222
kADK,kADK,Adak,51.87805556,-176.6461111
kADK,kADK,Adak,51.87805556,-176.6458333
kADK,kADK,Adak,51.88361111,-176.6425
kADK,kADK,Adak,51.87805556,-176.6461111
kADK,kADK,Adak,51.88361111,-176.6425
kADM,kADM,Ardmore Municipal,34.30305556,-97.01972222
kADM,kADM,Ardmore Municipal,34.30416667,-97.02055556
kADM,kADM,Ardmore Municipal,34.30388889,-97.02055556
kADM,kADM,Ardmore Municipal,34.30416667,-97.02055556
kADM,kADM,Ardmore Municipal,34.30388889,-97.02055556
kADQ,kADQ,Kodiak Airport,57.75,-152.4938889
kADQ,kADQ,Kodiak Airport,57.74972222,-152.4938889
kADQ,kADQ,Kodiak Airport,57.75,-152.4938889
kADQ,kADQ,Kodiak Airport,57.74972222,-152.4938889
kADS,kADS,Addison,32.96833333,-96.83611111
kADS,kADS,Addison,32.96861111,-96.83638889
kADW,kADW,Andrews AFB,38.81083333,-76.86722222
kADW,kADW,Andrews AFB,38.81083333,-76.86694444
kADW,kADW,Joint Base Andrews,38.81083333,-76.86694444
kADW,kADW,Andrews AFB,38.81083333,-76.86694444
kADW,kADW,Joint Base Andrews,38.81083333,-76.86694444
kAED,kAED,Aleneva Airport,58.03333333,-152.9
kAET,kAET,Allakaket Airport,66.56166667,-152.6583333
kAET,kAET,Allakaket Airport,66.55194444,-152.6222222
kAEX,kAEX,England AFB,31.32416667,-92.54694444
kAEX,kAEX,Alexandria International,31.3275,-92.54861111
kAFF,kAFF,USAF Academy Airfield,38.96972222,-104.8125
kAFF,kAFF,USAF Academy Airfield,38.96972222,-104.8127778
kAFF,kAFF,USAF Academy Airfield,38.97416667,-104.8177778
kAFF,kAFF,USAF Academy Airfield,38.96972222,-104.8127778
kAFF,kAFF,USAF Academy Airfield,38.97416667,-104.8177778
kAFK,kAFK,Nebraska City Municipal,40.60694444,-95.86583333
kAFK,kAFK,Nebraska City Municipal,40.60555556,-95.86777778
kAFK,kAFK,Nebraska City Municipal,40.60638889,-95.86666667
kAFK,kAFK,Nebraska City Municipal,40.60666667,-95.86666667
kAFK,kAFK,Nebraska City Municipal,40.60555556,-95.86777778
kAFK,kAFK,Nebraska City Municipal,40.60666667,-95.86666667
kAFO,kAFO,Afton Municipal,42.71666667,-110.9333333
kAFO,kAFO,Afton Municipal,42.70888889,-110.9422222
kAFP,kAFP,Anson County,35.02388889,-80.08138889
kAFP,kAFP,Anson County,35.02055556,-80.07722222
kAFP,kAFP,Anson County Jeff Cloud Field,35.02055556,-80.07722222
kAFP,kAFP,Anson County,35.02055556,-80.07722222
kAFP,kAFP,Anson County Jeff Cloud Field,35.02055556,-80.07722222
kAFW,kAFW,Fort Worth Alliance,32.98666667,-97.3175
kAFW,kAFW,Fort Worth Alliance,32.98777778,-97.31888889
kAFW,kAFW,Fort Worth Alliance,32.9875,-97.31888889
kAFW,kAFW,Fort Worth Alliance,32.98944444,-97.31944444
kAFW,kAFW,Fort Worth Alliance,32.98777778,-97.31888889
kAFW,kAFW,Fort Worth Alliance,32.98944444,-97.31944444
kAFW,kAFW,Fort Worth Alliance,32.99027778,-97.31944444
kAGC,kAGC,Allegheny County,40.35472222,-79.93
kAGC,kAGC,Allegheny County,40.35472222,-79.93
kAGC,kAGC,Allegheny County,40.35444444,-79.93027778
kAGC,kAGC,Allegheny County,40.35444444,-79.92916667
kAGC,kAGC,Allegheny County,40.35444444,-79.93027778
kAGC,kAGC,Allegheny County,40.35444444,-79.92916667
kAGN,kAGN,Angoon Seaplane Base,57.50388889,-134.5833333
kAGS,kAGS,Bush Field,33.36916667,-81.96444444
kAGS,kAGS,Augusta Regional at Bush Field,33.36916667,-81.96444444
kAGS,kAGS,Augusta Regional at Bush Field,33.37,-81.96444444
kAHD,kAHD,Ardmore Airport,34.14694444,-97.12277778
kAHD,kAHD,Ardmore Downtown Executive,34.14694444,-97.12277778
kAHN,kAHN,Athens Municipal,33.94833333,-83.32694444
kAHN,kAHN,Athens/Ben Epps,33.94861111,-83.32638889
kAHN,kAHN,Athens/Ben Epps,33.94861111,-83.32583333
kAHN,kAHN,Athens/Ben Epps,33.94861111,-83.32638889
kAHN,kAHN,Athens/Ben Epps,33.94861111,-83.32583333
kAHT,kAHT,Amchitka,51.37861111,179.2586111
kAIA,kAIA,Alliance Municipal,42.05166667,-102.8066667
kAIA,kAIA,Alliance Municipal,42.05333333,-102.8038889
kAIA,kAIA,Alliance Municipal,42.05333333,-102.8036111
kAIA,kAIA,Alliance Municipal,42.05333333,-102.8038889
kAIA,kAIA,Alliance Municipal,42.05333333,-102.8036111
kAIB,kAIB,Anita Bay Airport,56.19,-132.4458333
kAID,kAID,Anderson Municipal-Darlington Field,40.10861111,-85.61305556
kAID,kAID,Anderson Municipal-Darlington Field,40.10861111,-85.61305556
kAIK,kAIK,Aiken Municipal,33.65,-81.68472222
kAIK,kAIK,Aiken Municipal,33.64944444,-81.685
kAIK,kAIK,Aiken Regional,33.64944444,-81.685
kAIN,kAIN,Wainwright Airport,70.63055556,-160.0430556
kAIN,kAIN,Wainwright Airport,70.63805556,-159.9947222
kAIY,kAIY,Bader Field,39.36,-74.46
kAIY,kAIY,Bader Field,39.36,-74.45722222
kAIZ,kAIZ,Lee C Fine Memorial,38.09833333,-92.54722222
kAIZ,kAIZ,Lee C Fine Memorial,38.09611111,-92.54944444
kAKB,kAKB,Atka Airport,52.22027778,-174.2069444
kAKB,kAKB,Atka Airport,52.22055556,-174.2061111
kAKC,kAKC,Akron Fulton International,41.0375,-81.46694444
kAKI,kAKI,Akiak Airport,60.90555556,-161.2233333
kAKI,kAKI,Akiak Airport,60.90277778,-161.2305556
kAKK,kAKK,Akhiok Airport,56.945,-154.1666667
kAKK,kAKK,Akhiok Airport,56.93861111,-154.1825
kAKN,kAKN,King Salmon Airport,58.67777778,-156.6516667
kAKN,kAKN,King Salmon Airport,58.67638889,-156.6486111
kAKO,kAKO,Akron Washington County,40.17555556,-103.2222222
kAKO,kAKO,Colorado Plains Regional,40.17555556,-103.2219444
kAKP,kAKP,Anaktuvuk Pass Airport,68.1375,-151.74
kAKP,kAKP,Anaktuvuk Pass Airport,68.13361111,-151.7433333
kAL1,kAL1,Albertville Regional-Thomas J Brumlik Field,34.22916667,-86.25583333
kAL2,kAL2,Shelby County,33.17694444,-86.78277778
kAL2,kAL2,Shelby County,33.17777778,-86.78333333
kAL3,kAL3,Madison County Executive/Tom Sharp Jr. Field,34.86138889,-86.5575
kAL3,kAL3,Madison County Executive/Tom Sharp Jr. Field,34.85944444,-86.5575
kAL3,kAL3,Huntsville Executive Airport Tom Sharp Jr,34.85944444,-86.5575
kAL3,kAL3,Madison County Executive Tom Sharp Jr Field,34.86138889,-86.5575
kAL3,kAL3,Huntsville Executive Airport Tom Sharp Jr,34.85944444,-86.5575
kAL3,kAL3,Huntsville Executive Tom Sharp Jr,34.85944444,-86.5575
kALB,kALB,Albany International,42.74583333,-73.80527778
kALB,kALB,Albany International,42.74916667,-73.80194444
kALE,kALE,Alpine Casparis Municipal,30.38416667,-103.6830556
kALE,kALE,Alpine Casparis Municipal,30.38416667,-103.6836111
kALI,kALI,Alice International,27.74083333,-98.02722222
kALI,kALI,Alice International,27.74083333,-98.02694444
kALM,kALM,Alamogordo White Sands Regional,32.83972222,-105.99
kALM,kALM,Alamogordo White Sands Regional,32.84,-105.9905556
kALM,kALM,Alamogordo White Sands Regional,32.84138889,-105.9888889
kALM,kALM,Alamogordo White Sands Regional,32.83944444,-105.9911111
kALM,kALM,Alamogordo White Sands Regional,32.84,-105.9905556
kALM,kALM,Alamogordo White Sands Regional,32.83944444,-105.9911111
kALN,kALN,St. Louis Regional,38.89166667,-90.04833333
kALN,kALN,St. Louis Regional,38.89,-90.04611111
kALO,kALO,Waterloo Regional,42.55611111,-92.39972222
kALO,kALO,Waterloo Regional,42.55694444,-92.40027778
kALS,kALS,Alamosa Municipal,37.43666667,-105.8666667
kALS,kALS,San Luis Valley Regional/Bergman Field,37.435,-105.8666667
kALS,kALS,San Luis Valley Regional/Bergman Field,37.435,-105.8677778
kALS,kALS,San Luis Valley Regional/Bergman Field,37.435,-105.8666667
kALS,kALS,San Luis Valley Regional/Bergman Field,37.435,-105.8677778
kALW,kALW,Walla Walla Regional,46.09472222,-118.2911111
kALW,kALW,Walla Walla Regional,46.09472222,-118.2888889
kALW,kALW,Walla Walla Regional,46.09527778,-118.2858333
kALW,kALW,Walla Walla Regional,46.09472222,-118.2888889
kALW,kALW,Walla Walla Regional,46.09527778,-118.2858333
kALW,kALW,Walla Walla Regional,46.0925,-118.2841667
kALX,kALX,Thomas C. Russell Field,32.91666667,-85.96666667
kALX,kALX,Thomas C. Russell Field,32.91472222,-85.96305556
kALZ,kALZ,Alitak Seaplane Base,56.89583333,-154.2458333
kAMA,kAMA,Amarillo International,35.22722222,-101.7219444
kAMA,kAMA,Rick Husband Amarillo International,35.22722222,-101.7219444
kAMA,kAMA,Rick Husband Amarillo International,35.21944444,-101.7058333
kAMK,kAMK,Animas Air Park,37.20388889,-107.8686111
kAMK,kAMK,Animas Air Park,37.20305556,-107.8691667
kAMN,kAMN,Gratiot Community,43.32083333,-84.68666667
kAMN,kAMN,Gratiot Community,43.32222222,-84.68805556
kAMW,kAMW,Ames Municipal,41.99416667,-93.61833333
kAMW,kAMW,Ames Municipal,41.99194444,-93.62194444
kANA,kANA,Anaheim-Disneyland HP,33.81666667,-117.9333333
kANB,kANB,Anniston/Calhoun County,33.59027778,-85.85583333
kANB,kANB,Anniston Metro,33.58805556,-85.85805556
kANB,kANB,Anniston Regional,33.58805556,-85.85805556
kANB,kANB,Anniston Metro,33.58805556,-85.85805556
kANB,kANB,Anniston Regional,33.58805556,-85.85805556
kANC,kANC,Anchorage International,61.16916667,-149.9852778
kANC,kANC,Ted Stevens Anchorage International,61.17444444,-149.9961111
kANC,kANC,Ted Stevens Anchorage International,61.17444444,-149.9963889
kANC,kANC,Ted Stevens Anchorage International,61.17416667,-149.9980556
kANC,kANC,Ted Stevens Anchorage International,61.17444444,-149.9963889
kANC,kANC,Ted Stevens Anchorage International,61.17416667,-149.9980556
kAND,kAND,Anderson Regional,34.49361111,-82.71
kAND,kAND,Anderson Regional,34.49444444,-82.70944444
kANI,kANI,Aniak Airport,61.58166667,-159.5430556
kANN,kANN,Annette Island,55.03694444,-131.5705556
kANN,kANN,Annette Island,55.0425,-131.5722222
kANN,kANN,Annette Island,55.04222222,-131.5708333
kANN,kANN,Annette Island,55.0425,-131.5722222
kANN,kANN,Annette Island,55.04222222,-131.5708333
kANP,kANP,Lee,38.94277778,-76.56888889
kANP,kANP,Lee,38.94277778,-76.56833333
kANV,kANV,Anvik Airport,62.64777778,-160.1888889
kANV,kANV,Anvik Airport,62.64722222,-160.19
kAOH,kAOH,Lima Allen County,40.70833333,-84.02666667
kAOH,kAOH,Lima Allen County,40.70833333,-84.02694444
kAOO,kAOO,Altoona-Blair County,40.29722222,-78.32
kAOO,kAOO,Altoona-Blair County,40.29638889,-78.32
kAOS,kAOS,Amook Bay Airport,57.45472222,-153.8130556
kAPA,kAPA,Arapahoe County,39.57277778,-104.8477778
kAPA,kAPA,Centennial,39.57277778,-104.8477778
kAPA,kAPA,Centennial,39.57027778,-104.8494444
kAPA,kAPA,Centennial,39.57,-104.8494444
kAPA,kAPA,Centennial,39.57,-104.8491667
kAPC,kAPC,Napa County,38.21222222,-122.28
kAPC,kAPC,Napa County,38.21305556,-122.2805556
kAPC,kAPC,Napa County,38.21361111,-122.2802778
kAPC,kAPC,Napa County,38.21305556,-122.2805556
kAPF,kAPF,Naples Municipal,26.15277778,-81.77527778
kAPF,kAPF,Naples Municipal,26.15222222,-81.77583333
kAPF,kAPF,Naples Municipal,26.1525,-81.77555556
kAPF,kAPF,Naples Municipal,26.15222222,-81.77583333
kAPF,kAPF,Naples Municipal,26.1525,-81.77555556
kAPG,kAPG,Phillips AAF,39.46611111,-76.16972222
kAPG,kAPG,Phillips AAF,39.46611111,-76.16888889
kAPG,kAPG,Phillips AAF,39.46555556,-76.16833333
kAPN,kAPN,Phelps/Collins,45.08166667,-83.55583333
kAPN,kAPN,Alpena County Regional,45.07805556,-83.56027778
kAPT,kAPT,Marion County Brown Field,35.06055556,-85.58527778
kAPV,kAPV,Calf Apple Valley,34.52638889,-117.2127778
kAPV,kAPV,Apple Valley Airport,34.52638889,-117.2127778
kAPV,kAPV,Apple Valley Airport,34.57527778,-117.1861111
kAQY,kAQY,Girdwood Airport,60.96666667,-149.1236111
kAQY,kAQY,Girdwood Airport,60.96611111,-149.1258333
kAQY,kAQY,Girdwood Airport,60.96888889,-149.1194444
kAQY,kAQY,Girdwood Airport,60.96611111,-149.1258333
kAQY,kAQY,Girdwood Airport,60.96888889,-149.1194444
kAR1,kAR1,Russellville Regional,35.26472222,-93.09388889
kAR1,kAR1,Russellville Regional,35.25916667,-93.09333333
kAR1,kAR1,Russellville Regional,35.25916667,-93.0925
kAR2,kAR2,Dennis F Cantrell Field,35.08083333,-92.425
kAR2,kAR2,Dennis F Cantrell Field,35.08111111,-92.42444444
kAR2,kAR2,Dennis F Cantrell Field,35.08083333,-92.425
kAR2,kAR2,Dennis F Cantrell Field,35.08111111,-92.42444444
kARA,kARA,Acadiana Reg,30.03777778,-91.88388889
kARA,kARA,Acadiana Regional,30.0375,-91.88388889
kARA,kARA,Acadiana Regional,30.03777778,-91.88388889
kARB,kARB,Ann Arbor Municipal,42.22277778,-83.74444444
kARB,kARB,Ann Arbor Municipal,42.22305556,-83.74555556
kARC,kARC,Wien Arctic Village,68.1375,-145.5244444
kARC,kARC,Arctic Village Airport,68.11472222,-145.5794444
kARE,kARE,Antonio/Nery/Juarbe Pol,18.45027778,-66.67583333
kARE,kARE,Antonio/Nery/Juarbe Pol,18.45,-66.67527778
kARE,kARE,Antonio/Nery/Juarbe Pol,18.45083333,-66.67555556
kARE,kARE,Antonio/Nery/Juarbe Pol,18.45,-66.67527778
kARE,kARE,Antonio/Nery/Juarbe Pol,18.45083333,-66.67555556
kARG,kARG,Walnut Ridge Regional,36.125,-90.92638889
kARG,kARG,Walnut Ridge Regional,36.12472222,-90.925
kART,kART,Watertown International,43.99083333,-76.02138889
kART,kART,Watertown International,43.99194444,-76.02055556
kART,kART,Watertown International,43.99194444,-76.01944444
kART,kART,Watertown International,43.99194444,-76.02055556
kART,kART,Watertown International,43.99194444,-76.01944444
kARV,kARV,Lakeland/Noble F. Lee Memorial Field,45.92805556,-89.73083333
kARX,kARX,Asbury Park/Monmouth County,40.18333333,-74.11666667
kASE,kASE,Aspen Pitkin County Sardy Field,39.22416667,-106.8688889
kASE,kASE,Aspen Pitkin County Sardy Field,39.22305556,-106.8688889
kASE,kASE,Aspen Pitkin County Sardy Field,39.22194444,-106.8683333
kASE,kASE,Aspen Pitkin County Sardy Field,39.22305556,-106.8688889
kASE,kASE,Aspen Pitkin County Sardy Field,39.22194444,-106.8683333
kASH,kASH,Nashua Airport,42.77888889,-71.50944444
kASH,kASH,Boire Field,42.77888889,-71.50944444
kASH,kASH,Boire Field,42.78166667,-71.51472222
kASH,kASH,Boire Field,42.7825,-71.51416667
kASH,kASH,Boire Field,42.78166667,-71.51472222
kASH,kASH,Boire Field,42.7825,-71.51416667
kASL,kASL,Harrison County,32.52166667,-94.30805556
kASL,kASL,Harrison County,32.52055556,-94.30777778
kASN,kASN,Talladega Municipal,33.56972222,-86.05083333
kASN,kASN,Talladega Municipal,33.56944444,-86.05111111
kASQ,kASQ,Austin Airport,39.46888889,-117.1961111
kASQ,kASQ,Austin Airport,39.46805556,-117.1952778
kASQ,kASQ,Austin Airport,39.46805556,-117.1975
kASQ,kASQ,Austin Airport,39.46805556,-117.1952778
kASQ,kASQ,Austin Airport,39.46805556,-117.1975
kAST,kAST,Astoria Regional,46.15972222,-123.88
kAST,kAST,Astoria Regional,46.15805556,-123.8786111
kASX,kASX,John F Kennedy Memorial,46.54861111,-90.91861111
kASX,kASX,John F Kennedy Memorial,46.54861111,-90.91888889
kASY,kASY,Ashley Municipal,46.02388889,-99.35277778
kASY,kASY,Ashley Municipal,46.02388889,-99.3525
kASY,kASY,Ashley Municipal,46.02472222,-99.35166667
kASY,kASY,Ashley Municipal,46.02305556,-99.35277778
kASY,kASY,Ashley Municipal,46.02388889,-99.3525
kASY,kASY,Ashley Municipal,46.02305556,-99.35277778
kATE,kATE,Antlers Municipal,34.19277778,-95.64972222
kATE,kATE,Antlers Municipal,34.1925,-95.64972222
kATE,kATE,Antlers Municipal,34.19361111,-95.65
kATK,kATK,Atqasuk Edward Burnell Sr. Memorial,70.4675,-157.4519444
kATK,kATK,Atqasuk Edward Burnell Sr. Memorial,70.46722222,-157.4358333
kATK,kATK,Atqasuk Edward Burnell Sr. Memorial,70.46722222,-157.4355556
kATK,kATK,Atqasuk Edward Burnell Sr. Memorial,70.46722222,-157.4358333
kATK,kATK,Atqasuk Edward Burnell Sr. Memorial,70.46722222,-157.4355556
kATL,kATL,Atlanta Municipal,33.64083333,-84.42722222
kATL,kATL,William B. Hartsfield Atlanta International,33.64083333,-84.42722222
kATL,kATL,Hartsfield-Jackson Atlanta International,33.64083333,-84.42722222
kATL,kATL,Hartsfield-Jackson Atlanta International,33.63666667,-84.42805556
kATL,kATL,Hartsfield-Jackson Atlanta International,33.63666667,-84.42777778
kATL,kATL,Hartsfield-Jackson Atlanta International,33.63666667,-84.42805556
kATL,kATL,Hartsfield-Jackson Atlanta International,33.63666667,-84.42777778
kATO,kATO,Ohio University Snyder Field,39.21083333,-82.23166667
kATO,kATO,Ohio University Snyder Field,39.21194444,-82.22916667
kATO,kATO,Ohio University,39.21194444,-82.22916667
kATO,kATO,Ohio University Snyder Field,39.21194444,-82.22916667
kATO,kATO,Ohio University,39.21194444,-82.22916667
kATS,kATS,Artesia Municipal,32.84833333,-104.4669444
kATS,kATS,Artesia Municipal,32.8525,-104.4677778
kATS,kATS,Artesia Municipal,32.85166667,-104.4672222
kATS,kATS,Artesia Municipal,32.85194444,-104.4675
kATS,kATS,Artesia Municipal,32.8525,-104.4677778
kATS,kATS,Artesia Municipal,32.85194444,-104.4675
kATT,kATT,Atmautluak Airport,60.8675,-162.2708333
kATT,kATT,Atmautluak Airport,60.86722222,-162.2733333
kATT,kATT,Atmautluak Airport,60.86777778,-162.2741667
kATT,kATT,Atmautluak Airport,60.86722222,-162.2733333
kATT,kATT,Atmautluak Airport,60.86777778,-162.2741667
kATU,kATU,Casco Cove,52.82583333,173.1727778
kATU,kATU,Casco Cove CGS,52.8325,173.1755556
kATW,kATW,Outagamie County Regional,44.25777778,-88.52
kATW,kATW,Outagamie County Regional,44.25805556,-88.51916667
kATW,kATW,Appleton International,44.25805556,-88.51916667
kATW,kATW,Outagamie County Regional,44.25805556,-88.51916667
kATW,kATW,Appleton International,44.25805556,-88.51916667
kATY,kATY,Watertown Municipal,44.90888889,-97.15416667
kATY,kATY,Watertown Regional,44.90888889,-97.15416667
kATY,kATY,Watertown Regional,44.91388889,-97.15472222
kAUG,kAUG,Augusta,44.31805556,-69.79666667
kAUG,kAUG,Augusta State,44.32055556,-69.79722222
kAUK,kAUK,Alakanuk New,62.68916667,-164.6108333
kAUK,kAUK,Alakanuk Airport,62.68,-164.66
kAUK,kAUK,Alakanuk Airport,62.68305556,-164.7222222
kAUK,kAUK,Alakanuk Airport,62.68,-164.66
kAUK,kAUK,Alakanuk Airport,62.68305556,-164.7222222
kAUM,kAUM,Austin Municipal,43.66444444,-92.93388889
kAUM,kAUM,Austin Municipal,43.66277778,-92.93305556
kAUN,kAUN,Auburn Municipal,38.95277778,-121.0819444
kAUN,kAUN,Auburn Municipal,38.95472222,-121.0816667
kAUO,kAUO,Auburn-Opelika,32.61527778,-85.43194444
kAUO,kAUO,Auburn University Regional,32.615,-85.43388889
kBSM,kBSM,Austin - Bergstrom International,30.19444444,-97.67
kAUS,kAUS,Austin - Bergstrom International,30.19444444,-97.67
kAUW,kAUW,Wausau Downtown,44.92333333,-89.62305556
kAUW,kAUW,Wausau Downtown,44.92638889,-89.62694444
kAUW,kAUW,Wausau Downtown,44.92638889,-89.62666667
kAUW,kAUW,Wausau Downtown,44.92638889,-89.62694444
kAUW,kAUW,Wausau Downtown,44.92638889,-89.62666667
kAUZ,kAUZ,Aurora Municipal,41.77083333,-88.47277778
kAUZ,kAUZ,Aurora Municipal,41.77194444,-88.47555556
kAVL,kAVL,Asheville Regional,35.435,-82.54111111
kAVL,kAVL,Asheville Regional,35.43611111,-82.54194444
kAVL,kAVL,Asheville Regional,35.43444444,-82.54277778
kAVL,kAVL,Asheville Regional,35.43611111,-82.54194444
kAVL,kAVL,Asheville Regional,35.43444444,-82.54277778
kAVO,kAVO,Avon Park Municipal,27.5925,-81.52694444
kAVO,kAVO,Avon Park Executive,27.59138889,-81.52888889
kAVP,kAVP,Wilkes Barre Scranton International,41.33916667,-75.72583333
kAVP,kAVP,Wilkes Barre Scranton International,41.33861111,-75.72333333
kAVP,kAVP,Wilkes Barre Scranton International,41.33833333,-75.72333333
kAVP,kAVP,Wilkes Barre Scranton International,41.33861111,-75.72333333
kAVP,kAVP,Wilkes Barre Scranton International,41.33833333,-75.72333333
kAVW,kAVW,Avra Valley,32.40916667,-111.2180556
kAVW,kAVW,Marana Regional,32.40944444,-111.2183333
kAVX,kAVX,Catalina,33.405,-118.4158333
kAWK,kAWK,Wake Island Airfield,19.28,166.6402778
kAWK,kAWK,Wake Island Airfield,19.2825,166.6366667
kAWM,kAWM,West Memphis Municipal,35.135,-90.23444444
kAWX,kAWX,Andrews County,32.32944444,-102.5302778
kAWX,kAWX,Andrews County,32.33111111,-102.5294444
kAWX,kAWX,Andrews County,32.33083333,-102.5297222
kAWX,kAWX,Andrews County,32.33111111,-102.5294444
kAWX,kAWX,Andrews County,32.33083333,-102.5297222
kAXB,kAXB,Maxson Airfield,44.31666667,-75.89972222
kAXN,kAXN,Chandler Field,45.86722222,-95.39416667
kAXN,kAXN,Chandler Field,45.86638889,-95.39472222
kAXS,kAXS,Altus Municipal,34.69805556,-99.33805556
kAXS,kAXS,Altus/Quartz Mountain Regional,34.69888889,-99.33833333
kAXV,kAXV,Neil Armstrong,40.49333333,-84.29888889
kAXV,kAXV,Neil Armstrong,40.49361111,-84.29805556
kAXX,kAXX,Angel Fire,36.42055556,-105.2894444
kAXX,kAXX,Angel Fire,36.42194444,-105.29
kAYS,kAYS,Waycross Ga,31.24916667,-82.39555556
kAYS,kAYS,Waycross-Ware County,31.24861111,-82.39666667
kAYS,kAYS,Waycross-Ware County,31.24833333,-82.39527778
kAZ1,kAZ1,Valle,35.65083333,-112.1480556
kAZ1,kAZ1,Valle,35.65055556,-112.1480556
kAZ2,kAZ2,H. A. Clark Memorial Field,35.30222222,-112.1941667
kAZ2,kAZ2,H. A. Clark Memorial Field,35.30555556,-112.1944444
kAZ3,kAZ3,Glendale Municipal,33.52722222,-112.2952778
kAZ3,kAZ3,Glendale Municipal,33.52694444,-112.2952778
kDQF,kDQF,Williams Gateway,33.30777778,-111.6555556
kAZA,kAZA,Phoenix - Mesa Gateway,33.30777778,-111.6555556
kAZO,kAZO,Kalamazoo/Battle Creek International,42.23638889,-85.55361111
kAZO,kAZO,Kalamazoo/Battle Creek International,42.23444444,-85.55166667
kB19,kB19,Biddeford Municipal,43.46416667,-70.4725
kB21,kB21,Sugarloaf Regional,45.08611111,-70.21611111
kB21,kB21,Sugarloaf Regional,45.08527778,-70.21638889
kB21,kB21,Sugarloaf Regional,45.08555556,-70.21638889
kB21,kB21,Sugarloaf Regional,45.08527778,-70.21638889
kB21,kB21,Sugarloaf Regional,45.08555556,-70.21638889
kBAB,kBAB,Beale AFB,39.13611111,-121.4355556
kBAB,kBAB,Beale AFB,39.13611111,-121.4366667
kBAD,kBAD,Barksdale AFB,32.50166667,-93.6625
kBAD,kBAD,Barksdale AFB,32.50194444,-93.66277778
kBAD,kBAD,Barksdale AFB,32.50194444,-93.6625
kBAD,kBAD,Barksdale AFB,32.50194444,-93.66277778
kBAD,kBAD,Barksdale AFB,32.50194444,-93.6625
kBAF,kBAF,Barnes Municipal,42.16,-72.71638889
kBAF,kBAF,Barnes Municipal,42.15805556,-72.71583333
kBAF,kBAF,Westfield Barnes Regional,42.15805556,-72.71583333
kBAF,kBAF,Barnes Municipal,42.15805556,-72.71583333
kBAF,kBAF,Westfield Barnes Regional,42.15805556,-72.71583333
kBAM,kBAM,Lander County,40.5975,-116.8722222
kBAM,kBAM,Battle Mountain Airport,40.59916667,-116.8744444
kBAR,kBAR,Baker AAF,55.36666667,-133.6
kBBC,kBBC,Bay City Municipal,28.97305556,-95.86333333
kBBC,kBBC,Bay City Municipal,28.97333333,-95.86333333
kBBC,kBBC,Bay City Regional,28.97333333,-95.86333333
kBBC,kBBC,Bay City Municipal,28.97333333,-95.86333333
kBBC,kBBC,Bay City Regional,28.97333333,-95.86333333
kBBF,kBBF,N Eng Heliport,42.50833333,-71.18333333
kBBX,kBBX,Blue Bell Airport,40.13666667,-75.2675
kBBX,kBBX,Wings Field,40.13666667,-75.2675
kBBX,kBBX,Wings Field,40.1375,-75.26527778
kBCB,kBCB,Virginia Tech/Montgomery Executive,37.20722222,-80.40694444
kBCB,kBCB,Virginia Tech/Montgomery Executive,37.20777778,-80.40777778
kBCC,kBCC,Bear Creek Airport,57.6175,-155.8672222
kBCE,kBCE,Bryce Canyon Airport,37.70638889,-112.1447222
kBCE,kBCE,Bryce Canyon Airport,37.70638889,-112.1458333
kBCJ,kBCJ,Baca Grande,37.96666667,-105.7666667
kBCS,kBCS,Southern Seaplane,29.86611111,-90.02222222
kBCT,kBCT,Boca Raton Public,26.37083333,-80.10833333
kBDE,kBDE,Baudette International,48.72083333,-94.6
kBDE,kBDE,Baudette International,48.72833333,-94.61222222
kBDE,kBDE,Baudette International,48.73027778,-94.61111111
kBDG,kBDG,Blanding Municipal,37.58277778,-109.4825
kBDG,kBDG,Blanding Municipal,37.58333333,-109.4833333
kBDL,kBDL,Bradley International,41.93861111,-72.68333333
kBDL,kBDL,Bradley International,41.9375,-72.68305556
kBDL,kBDL,Bradley International,41.93888889,-72.68333333
kBDL,kBDL,Bradley International,41.93916667,-72.68333333
kBDL,kBDL,Bradley International,41.93888889,-72.68333333
kBDL,kBDL,Bradley International,41.93916667,-72.68333333
kBDR,kBDR,Igor I Sikorsky Memorial,41.16416667,-73.12444444
kBDR,kBDR,Igor I Sikorsky Memorial,41.16333333,-73.12611111
kBDY,kBDY,Bandon State,43.0875,-124.4083333
kBDY,kBDY,Bandon State,43.08638889,-124.4077778
kBED,kBED,Laurence G Hanscom Field,42.47083333,-71.29
kBED,kBED,Laurence G Hanscom Field,42.47,-71.28916667
kBED,kBED,Laurence G Hanscom Field,42.47,-71.28888889
kBED,kBED,Laurence G Hanscom Field,42.47,-71.28916667
kBED,kBED,Laurence G Hanscom Field,42.47,-71.28888889
kBEH,kBEH,Ross Field,42.12777778,-86.42833333
kBEH,kBEH,Southwest Michigan Regional,42.12861111,-86.42861111
kBEH,kBEH,Southwest Michigan Regional,42.12861111,-86.42611111
kBEH,kBEH,Southwest Michigan Regional,42.12861111,-86.42861111
kBEH,kBEH,Southwest Michigan Regional,42.12861111,-86.42611111
kBEH,kBEH,Southwest Michigan Regional,42.12833333,-86.425
kBET,kBET,Bethel Airport,60.78444444,-161.8313889
kBET,kBET,Bethel Airport,60.77861111,-161.8372222
kBFB,kBFB,Blue Fox Bay Airport,58.18333333,-152.1333333
kBFD,kBFD,Bradford Regional,41.80222222,-78.63944444
kBFD,kBFD,Bradford Regional,41.80305556,-78.64
kBFF,kBFF,William B. Heilig Field,41.87527778,-103.6011111
kBFF,kBFF,Western Neb. Regional/William B. Heilig Field,41.87527778,-103.6011111
kBFF,kBFF,Western Neb. Regional/William B. Heilig Field,41.87416667,-103.5955556
kBFI,kBFI,King County Airport-Boeing Field,47.52888889,-122.2994444
kBFI,kBFI,Boeing Field/King County International,47.53,-122.3019444
kBFK,kBFK,Buckley Air National Guard Base,39.70166667,-104.7516667
kBFK,kBFK,Buckley AFB,39.70166667,-104.7516667
kBFL,kBFL,Meadows Field,35.43,-119.0522222
kBFL,kBFL,Meadows Field,35.43361111,-119.0566667
kBFL,kBFL,Meadows Field,35.43388889,-119.0577778
kBFM,kBFM,Mobile Aerospace,30.62638889,-88.06805556
kBFM,kBFM,Mobile Downtown,30.62666667,-88.06805556
kBFP,kBFP,Beaver County,40.77222222,-80.39111111
kBFP,kBFP,Beaver County,40.7725,-80.39138889
kBFR,kBFR,Virgil I Grissom Municipal,38.84,-86.44527778
kBFR,kBFR,Virgil I Grissom Municipal,38.84,-86.44527778
kBFT,kBFT,Beaufort County,32.41194444,-80.63472222
kBFT,kBFT,Beaufort County,32.41222222,-80.63444444
kBGD,kBGD,Hutchinson County,35.70083333,-101.3930556
kBGD,kBGD,Hutchinson County,35.70083333,-101.3936111
kBGE,kBGE,Decatur County Industrial Air Park,30.97166667,-84.6375
kBGE,kBGE,Decatur County Industrial Air Park,30.97166667,-84.63694444
kBGM,kBGM,Greater Binghamton/Edwin A. Link Field,42.20138889,-75.96916667
kBGM,kBGM,Greater Binghamton/Edwin A. Link Field,42.20861111,-75.97972222
kBGM,kBGM,Greater Binghamton/Edwin A. Link Field,42.20833333,-75.97972222
kBGM,kBGM,Greater Binghamton/Edwin A. Link Field,42.20861111,-75.97972222
kBGM,kBGM,Greater Binghamton/Edwin A. Link Field,42.20833333,-75.97972222
kBGQ,kBGQ,Big Lake Airport,61.53583333,-149.8125
kBGQ,kBGQ,Big Lake Airport,61.53611111,-149.8138889
kBGQ,kBGQ,Big Lake Airport,61.53472222,-149.8125
kBGQ,kBGQ,Big Lake Airport,61.53611111,-149.8138889
kBGQ,kBGQ,Big Lake Airport,61.53472222,-149.8125
kBGR,kBGR,Bangor International,44.80777778,-68.82777778
kBGR,kBGR,Bangor International,44.8075,-68.82805556
kBGS,kBGS,Big Spring McMahon-Wrinkle,32.21444444,-101.525
kBGS,kBGS,Big Spring McMahon-Wrinkle,32.2125,-101.5216667
kBGT,kBGT,Bagdad Airport,34.59333333,-113.1708333
kBGT,kBGT,Bagdad Airport,34.59583333,-113.1702778
kBGT,kBGT,Bagdad Airport,34.59277778,-113.1719444
kBGT,kBGT,Bagdad Airport,34.59583333,-113.1702778
kBGT,kBGT,Bagdad Airport,34.59277778,-113.1719444
kBHB,kBHB,Hancock County-Bar Harbor,44.44888889,-68.36166667
kBHB,kBHB,Hancock County-Bar Harbor,44.44972222,-68.36166667
kBHB,kBHB,Hancock County-Bar Harbor,44.44972222,-68.36138889
kBHC,kBHC,Laughlin Bullhead International,35.16333333,-114.5644444
kIFP,kIFP,Laughlin/Bullhead International,35.16444444,-114.5652778
kIFP,kIFP,Laughlin/Bullhead International,35.15583333,-114.5594444
kIFP,kIFP,Laughlin/Bullhead International,35.15472222,-114.5594444
kIFP,kIFP,Laughlin/Bullhead International,35.15583333,-114.5594444
kIFP,kIFP,Laughlin/Bullhead International,35.15472222,-114.5594444
kBHM,kBHM,Birmingham Airport,33.56305556,-86.75555556
kBHM,kBHM,Birmingham International,33.56305556,-86.75555556
kBHM,kBHM,Birmingham-Shuttlesworth International,33.56305556,-86.75555556
kBHM,kBHM,Birmingham-Shuttlesworth International,33.56388889,-86.75222222
kBIC,kBIC,Big Creek Airport,57.66666667,-157.5833333
kBID,kBID,Block Island State,41.16666667,-71.57916667
kBID,kBID,Block Island State,41.16805556,-71.57777778
kBIE,kBIE,Beatrice Municipal,40.29888889,-96.75333333
kBIE,kBIE,Beatrice Municipal,40.30138889,-96.75416667
kBIF,kBIF,Biggs AAF,31.84944444,-106.3794444
kBIF,kBIF,Biggs AAF,31.84944444,-106.38
kBIG,kBIG,Allen AAF,63.99361111,-145.7188889
kBIG,kBIG,Allen AAF,63.99472222,-145.7202778
kBIH,kBIH,Eastern Sierra Regional,37.37333333,-118.365
kBIH,kBIH,Eastern Sierra Regional,37.37305556,-118.3636111
kBIH,kBIH,Bishop Airport,37.37305556,-118.3636111
kBIH,kBIH,Eastern Sierra Regional,37.37305556,-118.3636111
kBIH,kBIH,Bishop Airport,37.37305556,-118.3636111
kBIL,kBIL,Billings Logan International,45.80694444,-108.5427778
kBIL,kBIL,Billings Logan International,45.80777778,-108.5427778
kBIL,kBIL,Billings Logan International,45.80777778,-108.5436111
kBIS,kBIS,Bismarck Municipal,46.77888889,-100.7525
kBIS,kBIS,Bismarck Municipal,46.77277778,-100.7458333
kBIX,kBIX,Keesler AFB,30.41111111,-88.92361111
kBIX,kBIX,Keesler AFB,30.41055556,-88.92444444
kBJC,kBJC,Rocky Mountain Metropolitan,39.90888889,-105.1172222
kBJC,kBJC,Rocky Mountain Metro,39.90888889,-105.1172222
kBJC,kBJC,Rocky Mountain Metropolitan,39.90888889,-105.1172222
kBJC,kBJC,Rocky Mountain Metro,39.90888889,-105.1172222
kBJI,kBJI,Bemidji Municipal,47.50972222,-94.93472222
kBJI,kBJI,Bemidji/Beltrami County,47.50944444,-94.93361111
kBJI,kBJI,Bemidji Regional,47.50944444,-94.93361111
kBJI,kBJI,Bemidji Regional,47.51083333,-94.93472222
kBJJ,kBJJ,Wayne County,40.87472222,-81.88694444
kBJJ,kBJJ,Wayne County,40.87472222,-81.88666667
kBJJ,kBJJ,Wayne County,40.87472222,-81.88833333
kBKC,kBKC,Buckland Airport,65.97888889,-161.1266667
kBKC,kBKC,Buckland Airport,65.98166667,-161.1491667
kBKE,kBKE,Baker City Municipal,44.83833333,-117.81
kBKE,kBKE,Baker City Municipal,44.83722222,-117.8091667
kBKF,kBKF,Brooks Lake Airport,58.6,-156.2333333
kBKG,kBKG,Branson Airport,36.53194444,-93.20055556
kBKH,kBKH,Barking Sands Pacific Missile Range Facility,22.02166667,-159.7866667
kBKH,kBKH,Barking Sands PMRF,22.02277778,-159.785
kBKL,kBKL,Lakefront,41.51694444,-81.68333333
kBKL,kBKL,Burke Lakefront,41.5175,-81.68333333
kBKL,kBKL,Burke Lakefront,41.51777778,-81.68277778
kBKL,kBKL,Burke Lakefront,41.5175,-81.68333333
kBKL,kBKL,Burke Lakefront,41.51777778,-81.68277778
kBKW,kBKW,Raleigh County Memorial,37.78194444,-81.12416667
kBKW,kBKW,Raleigh County Memorial,37.78722222,-81.12416667
kBKX,kBKX,Brookings Regional,44.30333333,-96.81111111
kBKX,kBKX,Brookings Regional,44.30472222,-96.81694444
kBKX,kBKX,Brookings Regional,44.30444444,-96.81888889
kBKX,kBKX,Brookings Regional,44.30472222,-96.81694444
kBKX,kBKX,Brookings Regional,44.30444444,-96.81888889
kBLD,kBLD,Boulder City Municipal,35.9475,-114.8611111
kBLD,kBLD,Boulder City Municipal,35.94722222,-114.8602778
kBLD,kBLD,Boulder City Municipal,35.9475,-114.8613889
kBLD,kBLD,Boulder City Municipal,35.9475,-114.8611111
kBLD,kBLD,Boulder City Municipal,35.9475,-114.8613889
kBLD,kBLD,Boulder City Municipal,35.94722222,-114.8611111
kBLF,kBLF,Mercer County,37.29583333,-81.20805556
kBLF,kBLF,Mercer County,37.29583333,-81.20777778
kBLF,kBLF,Mercer County,37.29583333,-81.2075
kBLH,kBLH,Blythe Airport,33.62083333,-114.7188889
kBLH,kBLH,Blythe Airport,33.61916667,-114.7169444
kBLI,kBLI,Bellingham International,48.79444444,-122.5347222
kBLI,kBLI,Bellingham International,48.79277778,-122.5375
kBLM,kBLM,Monmouth Executive,40.18666667,-74.125
kBLM,kBLM,Monmouth Executive,40.18666667,-74.12444444
kBLV,kBLV,Scott AFB,38.54277778,-89.85111111
kBLV,kBLV,Scott AFB/MidAmerica,38.54527778,-89.83527778
kBMC,kBMC,Brigham City Airport,41.54916667,-112.0622222
kBMC,kBMC,Brigham City Airport,41.5525,-112.0622222
kBMC,kBMC,Brigham City Airport,41.55444444,-112.0622222
kBMC,kBMC,Brigham City Airport,41.5525,-112.0622222
kBMC,kBMC,Brigham City Airport,41.55444444,-112.0622222
kBMC,kBMC,Brigham City Regional,41.55444444,-112.0622222
kBMG,kBMG,Monroe County,39.14,-86.61472222
kBMG,kBMG,Monroe County,39.14,-86.61472222
kBMG,kBMG,Monroe County,39.14611111,-86.61666667
kBMI,kBMI,Central Illinois Regional,40.48194444,-88.9275
kBMI,kBMI,Central Illinois Regional,40.47722222,-88.91583333
kBMI,kBMI,Central Il Regional Airport at Bloomington,40.47722222,-88.91583333
kBML,kBML,Berlin Municipal,44.57472222,-71.17638889
kBML,kBML,Berlin Regional,44.57527778,-71.17583333
kBMX,kBMX,Big Mountain AFS,59.36194444,-155.2566667
kBMX,kBMX,Big Mountain AFS,59.36111111,-155.2588889
kBNA,kBNA,Nashville International,36.12666667,-86.68194444
kBNA,kBNA,Nashville International,36.12444444,-86.67805556
kBNF,kBNF,Warm Spring Bay Seaplane Base,57.08916667,-134.8313889
kBNG,kBNG,Banning Municipal,33.92305556,-116.8505556
kBNG,kBNG,Banning Municipal,33.9225,-116.8505556
kBNG,kBNG,Banning Municipal,33.9225,-116.8508333
kBNG,kBNG,Banning Municipal,33.9225,-116.8505556
kBNG,kBNG,Banning Municipal,33.9225,-116.8508333
kBNL,kBNL,Barnwell County,33.25777778,-81.38833333
kBNL,kBNL,Barnwell Regional,33.25805556,-81.38805556
kBNL,kBNL,Barnwell Regional,33.25777778,-81.38833333
kBNL,kBNL,Barnwell Regional,33.25805556,-81.38805556
kBNL,kBNL,Barnwell Regional,33.25777778,-81.38833333
kBNO,kBNO,Burns Municipal,43.59055556,-118.9541667
kBNO,kBNO,Burns Municipal,43.59194444,-118.9555556
kBOI,kBOI,Boise Air Terminal,43.56527778,-116.225
kBOI,kBOI,Boise Air Terminal,43.56444444,-116.2227778
kBOK,kBOK,Brookings Airport,42.07472222,-124.2888889
kBOK,kBOK,Brookings Airport,42.07444444,-124.29
kBOK,kBOK,Brookings Airport,42.07388889,-124.2897222
kBOS,kBOS,Logan International,42.36361111,-71.00611111
kBOS,kBOS,Logan International,42.36305556,-71.00638889
kBOW,kBOW,Bartow Municipal,27.94333333,-81.78361111
kBOW,kBOW,Bartow Municipal,27.94333333,-81.78333333
kBOW,kBOW,Bartow Executive,27.94333333,-81.78333333
kBPT,kBPT,Jefferson County,29.95083333,-94.02
kBPT,kBPT,Southeast Texas Regional,29.95083333,-94.02
kBPT,kBPT,Jack Brooks Regional,29.95083333,-94.02
kBPT,kBPT,Jack Brooks Regional,29.95083333,-94.02055556
kBQK,kBQK,Glynco Jetport,31.25888889,-81.46638889
kBQK,kBQK,Brunswick Golden Isles,31.25888889,-81.46638889
kBQK,kBQK,Brunswick Golden Isles,31.25916667,-81.46638889
kBQN,kBQN,Rafael Hernandez,18.495,-67.12944444
kBQN,kBQN,Rafael Hernandez,18.49472222,-67.12944444
kBQV,kBQV,Bartlett Cove Seaplane Base,58.45555556,-135.8833333
kBQV,kBQV,Bartlett Cove Seaplane Base,58.45527778,-135.8852778
kBRD,kBRD,Brainerd/Crow Wing County,46.39722222,-94.1375
kBRD,kBRD,Brainerd Lakes Regional,46.39722222,-94.1375
kBRD,kBRD,Brainerd Lakes Regional,46.40166667,-94.13555556
kBRD,kBRD,Brainerd Lakes Regional,46.40222222,-94.13555556
kBRD,kBRD,Brainerd Lakes Regional,46.40416667,-94.13361111
kBRD,kBRD,Brainerd Lakes Regional,46.40166667,-94.13555556
kBRD,kBRD,Brainerd Lakes Regional,46.40416667,-94.13361111
kBRG,kBRG,Whitesburg Municipal,37.11666667,-82.81666667
kBRL,kBRL,Burlington Municipal,40.78611111,-91.12333333
kBRL,kBRL,Southeast Iowa Regional,40.78333333,-91.12555556
kBRO,kBRO,Brownsville South Padre Island International,25.90638889,-97.42555556
kBRO,kBRO,Brownsville South Padre Island International,25.90694444,-97.42583333
kBRO,kBRO,Brownsville South Padre Island International,25.90611111,-97.42611111
kBRO,kBRO,Brownsville South Padre Island International,25.90694444,-97.42583333
kBRO,kBRO,Brownsville South Padre Island International,25.91083333,-97.42888889
kBRO,kBRO,Brownsville South Padre Island International,25.90611111,-97.42611111
kBRW,kBRW,Wiley Post/Will Rogers Memorial,71.28555556,-156.7661111
kBRW,kBRW,Wiley Post/Will Rogers Memorial,71.285,-156.7686111
kBRW,kBRW,Wiley Post/Will Rogers Memorial,71.28472222,-156.7686111
kBRW,kBRW,Wiley Post/Will Rogers Memorial,71.285,-156.7686111
kBRW,kBRW,Wiley Post/Will Rogers Memorial,71.28472222,-156.7686111
kBRY,kBRY,Samuels Field,37.81444444,-85.49972222
kBSM,kBSM,Bergstrom AFB,30.19472222,-97.67666667
kBSQ,kBSQ,Bisbee Municipal,31.37055556,-109.8825
kBSQ,kBSQ,Bisbee Municipal,31.36388889,-109.8830556
kBSW,kBSW,Boswell Bay Airport,60.42361111,-146.1444444
kBSW,kBSW,Boswell Bay Airport,60.42305556,-146.1458333
kBSZ,kBSZ,Bartletts Airport,58.23361111,-157.3502778
kBSZ,kBSZ,Bartletts Airport,58.21611111,-157.3525
kA2K,kA2K,Bartletts Airport,58.23305556,-157.3663889
kBTI,kBTI,Barter Island Dew Station,70.13472222,-143.5783333
kBTI,kBTI,Barter Island LRRS,70.13388889,-143.5819444
kBTI,kBTI,Barter Island Airport,70.13388889,-143.5819444
kBTI,kBTI,Barter Island LRRS,70.13388889,-143.5819444
kBTI,kBTI,Barter Island Airport,70.11305556,-143.6536111
kBTI,kBTI,Barter Island LRRS,70.13388889,-143.5819444
kBTI,kBTI,Barter Island Airport,70.11305556,-143.6536111
kBTL,kBTL,W K Kellogg,42.30916667,-85.24777778
kBTL,kBTL,W K Kellogg,42.30638889,-85.25
kBTM,kBTM,Bert Mooney,45.95111111,-112.4938889
kBTM,kBTM,Bert Mooney,45.95472222,-112.4975
kBTP,kBTP,Butler County/K. W. Scholter Field,40.77694444,-79.95
kBTP,kBTP,Butler County/K. W. Scholter Field,40.77666667,-79.95111111
kBTP,kBTP,Pittsburgh Butler Regional,40.77666667,-79.95111111
kBTR,kBTR,Baton Rouge Metropolitan/Ryan Field,30.53166667,-91.15055556
kBTR,kBTR,Baton Rouge Metropolitan/Ryan Field,30.53277778,-91.15
kBTR,kBTR,Baton Rouge Metropolitan/Ryan Field,30.53305556,-91.15
kBTR,kBTR,Baton Rouge Metropolitan/Ryan Field,30.53277778,-91.15
kBTR,kBTR,Baton Rouge Metropolitan/Ryan Field,30.53305556,-91.15
kBTT,kBTT,Bettles Airport,66.91527778,-151.5263889
kBTT,kBTT,Bettles Airport,66.91388889,-151.5291667
kBTV,kBTV,Burlington International,44.47277778,-73.15305556
kBTV,kBTV,Burlington International,44.47194444,-73.15333333
kBTY,kBTY,Beatty Airport,36.86111111,-116.7852778
kBTY,kBTY,Beatty Airport,36.86111111,-116.7869444
kBTY,kBTY,Beatty Airport,36.86111111,-116.7863889
kBTY,kBTY,Beatty Airport,36.86111111,-116.7869444
kBTY,kBTY,Beatty Airport,36.86111111,-116.7863889
kBUF,kBUF,Greater Buffalo International,42.94111111,-78.73638889
kBUF,kBUF,Buffalo Niagara International,42.94055556,-78.7325
kBUF,kBUF,Buffalo Niagara International,42.94055556,-78.73222222
kBUF,kBUF,Buffalo Niagara International,42.94055556,-78.73055556
kBUF,kBUF,Buffalo Niagara International,42.94055556,-78.73222222
kBUF,kBUF,Buffalo Niagara International,42.94055556,-78.73055556
kBUM,kBUM,Butler Memorial,38.28972222,-94.34
kBUM,kBUM,Butler Memorial,38.28972222,-94.34027778
kBUM,kBUM,Butler Memorial,38.28972222,-94.34
kBUM,kBUM,Butler Memorial,38.28972222,-94.34027778
kBUR,kBUR,Hollywood-Burbank Midpoint,34.2,-118.3577778
kBUR,kBUR,Bob Hope,34.2,-118.3577778
kBUR,kBUR,Bob Hope,34.20055556,-118.3586111
kBVD,kBVD,Beaver Inlet Seaport,53.8325,-166.3025
kBVO,kBVO,Frank Phillips,36.7625,-96.01083333
kBVO,kBVO,Bartlesville Municipal,36.7625,-96.01083333
kBVO,kBVO,Bartlesville Municipal,36.76416667,-96.01111111
kBVO,kBVO,Bartlesville Municipal,36.76333333,-96.01111111
kBVO,kBVO,Bartlesville Municipal,36.76416667,-96.01111111
kBVO,kBVO,Bartlesville Municipal,36.76333333,-96.01111111
kBVR,kBVR,Beaver Island,45.69361111,-85.56583333
kBVR,kBVR,Beaver Island,45.69222222,-85.56666667
kBVX,kBVX,Batesville Regional,35.72611111,-91.6475
kBVY,kBVY,Beverly Municipal,42.58333333,-70.91555556
kBVY,kBVY,Beverly Municipal,42.58416667,-70.91611111
kBVY,kBVY,Beverly Regional,42.58416667,-70.91611111
kBVY,kBVY,Beverly Municipal,42.58416667,-70.91611111
kBVY,kBVY,Beverly Regional,42.58416667,-70.91611111
kBWD,kBWD,Brownwood Regional,31.79472222,-98.95666667
kBWD,kBWD,Brownwood Regional,31.79361111,-98.95638889
kBWG,kBWG,Bowling Green-Warren County Regional,36.96222222,-86.42222222
kBWG,kBWG,Bowling Green-Warren County Regional,36.96444444,-86.41972222
kBAL,kBAL,Friendship International,39.17555556,-76.67138889
kBWI,kBWI,Baltimore/Washington International,39.175,-76.67
kBWI,kBWI,Baltimore/Washington International Thurgood Marshall,39.17527778,-76.66833333
kBWI,kBWI,Baltimore/Washington International Thurgood Marshall,39.17583333,-76.66888889
kBWI,kBWI,Baltimore/Washington International Thurgood Marshall,39.17527778,-76.66833333
kBWI,kBWI,Baltimore/Washington International Thurgood Marshall,39.17583333,-76.66888889
kBWM,kBWM,Bowman County,46.1875,-103.4208333
kBWM,kBWM,Bowman Municipal,46.18694444,-103.4280556
kBWS,kBWS,Blaine Municipal,48.98972222,-122.7305556
kBWS,kBWS,Blaine Municipal,48.99,-122.7325
kBXC,kBXC,Sheraton Inn Heliport,42.48472222,-71.54444444
kBXS,kBXS,Borrego Valley,33.25972222,-116.3222222
kBXS,kBXS,Borrego Valley,33.25916667,-116.3208333
kBYA,kBYA,Boundary Airport,64.07638889,-141.1144444
kBYA,kBYA,Boundary Airport,64.07833333,-141.1133333
kRKH,kRKH,Rock Hill/York County/Bryant Field,34.98777778,-81.05722222
kBYG,kBYG,Johnson County,44.38138889,-106.7211111
kBYG,kBYG,Johnson County,44.38111111,-106.7216667
kBYH,kBYH,Blytheville AFB,35.96416667,-89.94583333
kBYH,kBYH,Arkansas International,35.96416667,-89.94583333
kBYH,kBYH,Arkansas International,35.96444444,-89.94388889
kBYI,kBYI,Burley Municipal,42.54138889,-113.7741667
kBYI,kBYI,Burley Municipal,42.5425,-113.7716667
kMI5,kMI5,Boyne Mountain,45.16583333,-84.92416667
kBYW,kBYW,Blakely Island Airport,48.57916667,-122.825
kBYW,kBYW,Blakely Island Airport,48.57888889,-122.8263889
kBZN,kBZN,Gallatin Field,45.78027778,-111.1594444
kBZN,kBZN,Gallatin Field,45.7775,-111.1519444
kBZN,kBZN,Bozeman Yellowstone International,45.7775,-111.1519444
kBZN,kBZN,Gallatin Field,45.7775,-111.1519444
kBZN,kBZN,Bozeman Yellowstone International,45.77722222,-111.1502778
kBZN,kBZN,Bozeman Yellowstone International,45.77722222,-111.1505556
kBZN,kBZN,Bozeman Yellowstone International,45.77722222,-111.1502778
kBZS,kBZS,Buzzards Point Seaplane Base,38.86333333,-77.01333333
kBZT,kBZT,Eagle Air Park,28.98222222,-95.57972222
kC01,kC01,Camarillo Airport,34.21388889,-119.0944444
kC01,kC01,Camarillo Airport,34.21361111,-119.0944444
kC02,kC02,Bakersfield Municipal,35.32472222,-118.9958333
kC02,kC02,Bakersfield Municipal,35.32472222,-118.9961111
kCAD,kCAD,Wexford County,44.27583333,-85.41916667
kCAD,kCAD,Wexford County,44.27527778,-85.41888889
kCAE,kCAE,Columbia Metropolitan,33.93638889,-81.11583333
kCAE,kCAE,Columbia Metropolitan,33.94055556,-81.11916667
kCAE,kCAE,Columbia Metropolitan,33.93888889,-81.11944444
kCAK,kCAK,Akron-Canton Regional,40.91388889,-81.44166667
kCAK,kCAK,Akron-Canton Regional,40.915,-81.44361111
kCAR,kCAR,Caribou Municipal,46.87083333,-68.02083333
kCAR,kCAR,Caribou Municipal,46.87138889,-68.01805556
kCAR,kCAR,Caribou Municipal,46.87166667,-68.01805556
kCAR,kCAR,Caribou Municipal,46.87138889,-68.01805556
kCAR,kCAR,Caribou Municipal,46.87166667,-68.01805556
kCBA,kCBA,Corner Bay Airport,57.73777778,-135.1255556
kCBE,kCBE,Cumberland Municipal,39.61444444,-78.76611111
kCBE,kCBE,Greater Cumberland Regional,39.61555556,-78.76083333
kCBE,kCBE,Greater Cumberland Regional,39.61527778,-78.76138889
kCBF,kCBF,Council Bluffs Municipal,41.25888889,-95.75972222
kCBF,kCBF,Council Bluffs Municipal,41.26,-95.75861111
kCBK,kCBK,Murray,39.40388889,-101.0466667
kCBM,kCBM,Columbus AFB,33.64361111,-88.44388889
kCBM,kCBM,Columbus AFB,33.64527778,-88.44583333
kCCR,kCCR,Buchanan Field,37.98888889,-122.0555556
kCCR,kCCR,Buchanan Field,37.98972222,-122.0558333
kCCR,kCCR,Buchanan Field,37.98972222,-122.0569444
kCCY,kCCY,Charles City Municipal,43.0725,-92.61083333
kCCY,kCCY,Northeast Iowa Regional,43.0725,-92.61083333
kCCY,kCCY,Northeast Iowa Regional,43.07361111,-92.61083333
kCCY,kCCY,Northeast Iowa Regional,43.0725,-92.61083333
kCDB,kCDB,Cold Bay Airport,55.19972222,-162.7197222
kCDB,kCDB,Cold Bay Airport,55.20527778,-162.7244444
kCDB,kCDB,Cold Bay Airport,55.20583333,-162.7263889
kCDB,kCDB,Cold Bay Airport,55.20527778,-162.7244444
kCDB,kCDB,Cold Bay Airport,55.20583333,-162.7263889
kCDB,kCDB,Cold Bay Airport,55.20583333,-162.7261111
kCDC,kCDC,Cedar City Regional,37.7025,-113.0961111
kCDC,kCDC,Cedar City Regional,37.70083333,-113.0988889
kCDH,kCDH,Harrell Field,33.6175,-92.76333333
kCDH,kCDH,Harrell Field,33.62277778,-92.76333333
kCDL,kCDL,Candle 2,65.90805556,-161.9383333
kCDL,kCDL,Candle 2,65.90777778,-161.9263889
kCDN,kCDN,Woodward Field,34.26666667,-80.6
kCDN,kCDN,Woodward Field,34.28361111,-80.56472222
kCDR,kCDR,Chadron Municipal,42.835,-103.0977778
kCDR,kCDR,Chadron Municipal,42.8375,-103.0952778
kCDV,kCDV,Cordova Mile 13,60.49305556,-145.47
kCDV,kCDV,Mile 13 Field,60.49305556,-145.47
kCDV,kCDV,Merle K Mudhole Smith,60.49166667,-145.4775
kCDW,kCDW,Caldwell Wright,40.87555556,-74.28138889
kCDW,kCDW,Essex County,40.87527778,-74.28138889
kCEA,kCEA,Cessna Aircraft Field,37.64861111,-97.25027778
kCEA,kCEA,Cessna Aircraft Field,37.64861111,-97.25055556
kCEC,kCEC,Jack McNamara Field,41.78,-124.2358333
kCEC,kCEC,Jack McNamara Field,41.78027778,-124.2366667
kCEF,kCEF,Westover AFB,42.19777778,-72.53055556
kCEF,kCEF,Westover ARB Metropolitan,42.19388889,-72.53472222
kCEM,kCEM,Central Airport,65.57472222,-144.7819444
kCEM,kCEM,Central Airport,65.57388889,-144.7808333
kCEU,kCEU,Clemson-Oconee County,34.67444444,-82.89027778
kCEU,kCEU,Oconee County Regional,34.67194444,-82.88694444
kCEU,kCEU,Oconee County Regional,34.67222222,-82.88583333
kCEU,kCEU,Oconee County Regional,34.67194444,-82.88694444
kCEU,kCEU,Oconee County Regional,34.67222222,-82.88583333
kCEV,kCEV,Mettel Field,39.69861111,-85.13166667
kCEV,kCEV,Mettel Field,39.69861111,-85.13166667
kCEV,kCEV,Mettel Field,39.69805556,-85.13111111
kCEW,kCEW,Bob Sikes,30.77972222,-86.5225
kCEW,kCEW,Bob Sikes,30.77888889,-86.52222222
kCEX,kCEX,Chena Hot Springs Airport,65.05277778,-146.045
kCEX,kCEX,Chena Hot Springs Airport,65.05194444,-146.0475
kCEY,kCEY,Kyle-Oakley Field,36.66555556,-88.37111111
kCEY,kCEY,Kyle-Oakley Field,36.66444444,-88.37277778
kCEZ,kCEZ,Cortez Montezuma County,37.30277778,-108.6272222
kCEZ,kCEZ,Cortez Municipal,37.30305556,-108.6280556
kCFA,kCFA,Coffee Point Airport,58.21666667,-157.5
kCFT,kCFT,Greenlee County,32.95722222,-109.205
kCFT,kCFT,Greenlee County,32.95694444,-109.2111111
kCFV,kCFV,Coffeyville Municipal,37.09388889,-95.57166667
kCFV,kCFV,Coffeyville Municipal,37.09416667,-95.57194444
kCFV,kCFV,Coffeyville Municipal,37.09527778,-95.57444444
kCFV,kCFV,Coffeyville Municipal,37.09388889,-95.57194444
kCFV,kCFV,Coffeyville Municipal,37.09416667,-95.57194444
kCFV,kCFV,Coffeyville Municipal,37.09388889,-95.57194444
kCGA,kCGA,Craig Seaplane Base,55.47916667,-133.1461111
kCGE,kCGE,Cambridge-Dorchester,38.53944444,-76.02777778
kCGE,kCGE,Cambridge-Dorchester,38.53944444,-76.03027778
kCGE,kCGE,Cambridge Dorchester Regional,38.53944444,-76.03027778
kCGE,kCGE,Cambridge Dorchester,38.53944444,-76.03027778
kCGE,kCGE,Cambridge Dorchester Regional,38.53944444,-76.03027778
kCGF,kCGF,Cuyahoga County,41.56527778,-81.48666667
kCGF,kCGF,Cuyahoga County,41.565,-81.48638889
kCGF,kCGF,Cuyahoga County,41.56444444,-81.48722222
kCGI,kCGI,Cape Girardeau Regional,37.22361111,-89.57166667
kCGI,kCGI,Cape Girardeau Regional,37.22527778,-89.57083333
kCGS,kCGS,College Park Airport,38.98055556,-76.92277778
kCGS,kCGS,College Park Airport,38.98055556,-76.92222222
kCGX,kCGX,Meigs Field,41.85888889,-87.60833333
kCGZ,kCGZ,Casa Grande Municipal,32.95472222,-111.7661111
kCGZ,kCGZ,Casa Grande Municipal,32.955,-111.7669444
kCHA,kCHA,Lovell Field,35.03638889,-85.20361111
kCHA,kCHA,Lovell Field,35.03527778,-85.20361111
kCHD,kCHD,Chandler Municipal,33.26888889,-111.8111111
kCHD,kCHD,Chandler Municipal,33.26916667,-111.8111111
kCHI,kCHI,Chicago Metropolitan Area,41.87388889,-87.75555556
kQCG,kQCG,Challis Airport,44.51916667,-114.22
kCHL,kCHL,Challis Airport,44.52305556,-114.2166667
kCHL,kCHL,Challis Airport,44.52361111,-114.2180556
kCHO,kCHO,Charlottesville Albemarle,38.14138889,-78.45305556
kCHO,kCHO,Charlottesville Albemarle,38.13861111,-78.45277778
kCHO,kCHO,Charlottesville Albemarle,38.13972222,-78.45222222
kCHO,kCHO,Charlottesville Albemarle,38.13861111,-78.45277778
kCHO,kCHO,Charlottesville Albemarle,38.13972222,-78.45222222
kCHP,kCHP,Circle Hot Springs Airport,65.48555556,-144.6108333
kCHP,kCHP,Circle Hot Springs Airport,65.48583333,-144.6116667
kCHP,kCHP,Circle Hot Springs Airport,65.48555556,-144.6108333
kCHP,kCHP,Circle Hot Springs Airport,65.48583333,-144.6116667
kCHS,kCHS,Charleston International,32.89916667,-80.03888889
kCHS,kCHS,Charleston AFB/International,32.89861111,-80.04055556
kCHU,kCHU,Chuathbaluk Airport,61.57194444,-159.245
kCHU,kCHU,Chuathbaluk Airport,61.57916667,-159.2155556
kCHZ,kCHZ,Chiloquin State,42.57638889,-121.8769444
kCHZ,kCHZ,Chiloquin State,42.58305556,-121.8761111
kCHZ,kCHZ,Chiloquin State,42.57944444,-121.8788889
kCHZ,kCHZ,Chiloquin State,42.58305556,-121.8761111
kCHZ,kCHZ,Chiloquin State,42.57944444,-121.8788889
kCIB,kCIB,Catalina,33.405,-118.4158333
kCIC,kCIC,Chico Municipal,39.79583333,-121.8566667
kCIC,kCIC,Chico Municipal,39.79527778,-121.8583333
kCID,kCID,Cedar Rapids Municipal,41.88444444,-91.70611111
kCID,kCID,The Eastern Iowa,41.88444444,-91.70611111
kCID,kCID,The Eastern Iowa,41.88472222,-91.71083333
kCIG,kCIG,Craig-Moffat,40.49555556,-107.525
kCIG,kCIG,Craig-Moffat,40.49527778,-107.5216667
kCIK,kCIK,Chalkyitsik Airport,66.64805556,-143.7291667
kCIK,kCIK,Chalkyitsik Airport,66.645,-143.74
kCIL,kCIL,Council Airport,64.90805556,-163.7330556
kCIL,kCIL,Council Airport,64.89777778,-163.7033333
kCIL,kCIL,Council Airport,64.89666667,-163.7036111
kCIL,kCIL,Council Airport,64.89777778,-163.7033333
kCIL,kCIL,Council Airport,64.89666667,-163.7036111
kCIN,kCIN,Arthur N Neu,42.04722222,-94.79055556
kCIN,kCIN,Arthur N Neu,42.04611111,-94.78888889
kCIN,kCIN,Arthur N Neu,42.04666667,-94.78861111
kCIN,kCIN,Arthur N Neu,42.04611111,-94.78888889
kCIN,kCIN,Arthur N Neu,42.04666667,-94.78861111
kCIR,kCIR,Cairo Regional,37.06111111,-89.21805556
kCIR,kCIR,Cairo Regional,37.06444444,-89.21972222
kCIR,kCIR,Cairo Regional,37.06416667,-89.21944444
kCIR,kCIR,Cairo Regional,37.06444444,-89.21972222
kCIR,kCIR,Cairo Regional,37.06416667,-89.21944444
kINR,kINR,Kincheloe AFB,46.24222222,-84.46611111
kCIU,kCIU,Chippewa County International,46.24194444,-84.46611111
kCIU,kCIU,Chippewa County International,46.25083333,-84.4725
kCIV,kCIV,Chomley Airport,55.24777778,-132.3236111
kCJI,kCJI,Crafton Island Airport,60.50277778,-147.9402778
kCJW,kCJW,Clay Center Municipal,39.38722222,-97.15722222
kCKB,kCKB,Benedum,39.29555556,-80.22944444
kCKB,kCKB,North Central West Virginia,39.29666667,-80.22805556
kCKB,kCKB,North Central West Virginia,39.29777778,-80.2275
kCKB,kCKB,North Central West Virginia,39.29666667,-80.22805556
kCKB,kCKB,North Central West Virginia,39.29777778,-80.2275
kCKD,kCKD,Crooked Creek Airport,61.88555556,-158.1372222
kCKD,kCKD,Crooked Creek Airport,61.86777778,-158.135
kCKE,kCKE,Pearce Field,38.93472222,-122.6222222
kCKM,kCKM,Fletcher Field,34.29972222,-90.51222222
kCKU,kCKU,Cordova Municipal,60.5425,-145.7266667
kCKU,kCKU,Cordova Municipal,60.54388889,-145.7266667
kCKU,kCKU,Cordova Municipal,60.54361111,-145.7258333
kCKU,kCKU,Cordova Municipal,60.54388889,-145.7266667
kCKU,kCKU,Cordova Municipal,60.54361111,-145.7258333
kCKV,kCKV,Outlaw Field,36.62083333,-87.41444444
kCKV,kCKV,Outlaw Field,36.62194444,-87.415
kCKX,kCKX,Chicken Airport,64.06777778,-141.9491667
kCKX,kCKX,Chicken Airport,64.07138889,-141.9522222
kCKX,kCKX,Chicken Airport,64.06666667,-141.9513889
kCKX,kCKX,Chicken Airport,64.07138889,-141.9522222
kCKX,kCKX,Chicken Airport,64.06666667,-141.9513889
kCLC,kCLC,Clear Lake Metroport,29.55694444,-95.1375
kCLD,kCLD,Palomar,33.12861111,-117.2797222
kCLD,kCLD,McClellan-Palomar,33.12861111,-117.2797222
kCLD,kCLD,McClellan-Palomar,33.12833333,-117.28
kCLE,kCLE,Cleveland-Hopkins International,41.41083333,-81.84944444
kCLE,kCLE,Cleveland-Hopkins International,41.40944444,-81.855
kCLE,kCLE,Cleveland-Hopkins International,41.40944444,-81.85472222
kCLE,kCLE,Cleveland-Hopkins International,41.40944444,-81.855
kCLE,kCLE,Cleveland-Hopkins International,41.40944444,-81.85472222
kCLF,kCLF,Clear Mews,64.30166667,-149.1177778
kCLG,kCLG,Coalinga Municipal,36.16055556,-120.3594444
kCLG,kCLG,New Coalinga Municipal,36.16222222,-120.2947222
kCLI,kCLI,Clintonville Municipal,44.61305556,-88.73111111
kCLI,kCLI,Clintonville Municipal,44.61333333,-88.73083333
kCLI,kCLI,Clintonville Municipal,44.61305556,-88.73083333
kCLI,kCLI,Clintonville Municipal,44.61333333,-88.73083333
kCLI,kCLI,Clintonville Municipal,44.61305556,-88.73083333
kCLK,kCLK,Clinton Municipal,35.53777778,-98.93166667
kCLK,kCLK,Clinton Regional,35.53833333,-98.93277778
kCLL,kCLL,Easterwood Field,30.58944444,-96.36444444
kCLL,kCLL,Easterwood Field,30.58861111,-96.36388889
kCLL,kCLL,Easterwood Field,30.58805556,-96.3625
kCLM,kCLM,William R. Fairchild International,48.11888889,-123.4936111
kCLM,kCLM,William R. Fairchild International,48.12027778,-123.4997222
kCLP,kCLP,Clarks Point Airport,58.84305556,-158.5430556
kCLP,kCLP,Clarks Point Airport,58.83361111,-158.5294444
kCLR,kCLR,Cliff Hatfield Memorial,33.12972222,-115.5216667
kCLR,kCLR,Cliff Hatfield Memorial,33.13138889,-115.5213889
kCLS,kCLS,Chehalis Airport,46.67388889,-122.9811111
kCLS,kCLS,Chehalis Centralia,46.67388889,-122.9811111
kCLS,kCLS,Chehalis Centralia,46.67694444,-122.9827778
kCLT,kCLT,Douglas Municipal,35.21916667,-80.93583333
kCLT,kCLT,Charlotte Douglas International,35.21388889,-80.94305556
kCLT,kCLT,Charlotte Douglas International,35.21361111,-80.94916667
kCLU,kCLU,Columbus Municipal,39.26194444,-85.89638889
kCLU,kCLU,Columbus Municipal,39.26194444,-85.89638889
kCMH,kCMH,Port Columbus International,39.99111111,-82.87833333
kCMH,kCMH,Port Columbus International,39.99805556,-82.89194444
kCMH,kCMH,Port Columbus International,39.99694444,-82.89222222
kCMH,kCMH,John Glenn Columbus International,39.99694444,-82.89222222
kCMH,kCMH,Port Columbus International,39.99805556,-82.89194444
kCMH,kCMH,John Glenn Columbus International,39.99694444,-82.89222222
kCMI,kCMI,University of Illinois/Willard,40.03972222,-88.27972222
kCMI,kCMI,University of Illinois/Willard,40.03888889,-88.27777778
kCMX,kCMX,Houghton County Memorial,47.16777778,-88.48638889
kCMX,kCMX,Houghton County Memorial,47.16833333,-88.48916667
kCNE,kCNE,Fremont County,38.43055556,-105.1083333
kCNE,kCNE,Fremont County,38.42833333,-105.1061111
kCNE,kCNE,Fremont County,38.42861111,-105.1069444
kCNE,kCNE,Fremont County,38.42833333,-105.1069444
kCNE,kCNE,Fremont County,38.42833333,-105.1061111
kCNE,kCNE,Fremont County,38.42861111,-105.1069444
kCNE,kCNE,Fremont County,38.42833333,-105.1061111
kCNE,kCNE,Fremont County,38.42861111,-105.1069444
kCNK,kCNK,Blosser Municipal,39.5425,-97.65166667
kCNK,kCNK,Blosser Municipal,39.54916667,-97.65222222
kCNM,kCNM,Cavern City Air Terminal,32.33722222,-104.2627778
kCNM,kCNM,Cavern City Air Terminal,32.3375,-104.2633333
kCNO,kCNO,Chino Airport,33.97083333,-117.6413889
kCNO,kCNO,Chino Airport,33.97472222,-117.6363889
kCNW,kCNW,TSTC Waco,31.63666667,-97.07222222
kCNW,kCNW,TSTC Waco,31.63777778,-97.07416667
kCNW,kCNW,Heart of Texas Industrial,31.63777778,-97.07416667
kCNW,kCNW,TSTC Waco,31.63777778,-97.07416667
kCNY,kCNY,Canyonlands Field,38.75944444,-109.7461111
kCNY,kCNY,Canyonlands Field,38.755,-109.7547222
kCNY,kCNY,Canyonlands Field,38.75777778,-109.7533333
kCNY,kCNY,Canyonlands Field,38.7575,-109.7536111
kCO3,kCO3,Marina Municipal,36.68194444,-121.7622222
kCO3,kCO3,Marina Municipal,36.68166667,-121.7616667
kCOA,kCOA,Columbia Airport,38.03055556,-120.4144444
kCOD,kCOD,Yellowstone Regional,44.51583333,-109.0275
kCOD,kCOD,Yellowstone Regional,44.52027778,-109.0238889
kCOE,kCOE,Coeur d'Alene - Pappy Boyington Field,47.775,-116.8177778
kCOE,kCOE,Coeur d'Alene - Pappy Boyington Field,47.77444444,-116.8194444
kCOF,kCOF,Patrick AFB,28.23916667,-80.60777778
kCOF,kCOF,Patrick AFB,28.235,-80.61
kCOF,kCOF,Patrick AFB,28.235,-80.61027778
kCOF,kCOF,Patrick AFB,28.235,-80.61
kCOM,kCOM,Coleman Municipal,31.84111111,-99.40361111
kCON,kCON,Concord Municipal,43.20333333,-71.50222222
kCON,kCON,Concord Municipal,43.20277778,-71.50222222
kCOS,kCOS,Peterson Field,38.80888889,-104.7091667
kCOS,kCOS,City of Colorado Springs Municipal,38.80583333,-104.7008333
kCOT,kCOT,Cotulla-La Salle County,28.45694444,-99.21861111
kCOT,kCOT,Cotulla-La Salle County,28.45666667,-99.22027778
kCOT,kCOT,Cotulla-La Salle County,28.45666667,-99.21833333
kCOT,kCOT,Cotulla-La Salle County,28.45583333,-99.21722222
kCOT,kCOT,Cotulla-La Salle County,28.45666667,-99.21833333
kCOT,kCOT,Cotulla-La Salle County,28.45583333,-99.21722222
kCOT,kCOT,Cotulla-La Salle County,28.45666667,-99.22027778
kCOT,kCOT,Cotulla-La Salle County,28.45583333,-99.21722222
kCOU,kCOU,Columbia Regional,38.81361111,-92.21916667
kCOU,kCOU,Columbia Regional,38.81805556,-92.21972222
kCOU,kCOU,Columbia Regional,38.81722222,-92.21805556
kCOU,kCOU,Columbia Regional,38.81805556,-92.21972222
kCOU,kCOU,Columbia Regional,38.81722222,-92.21805556
kCPR,kCPR,Casper/Natrona County International,42.90861111,-106.4625
kCPR,kCPR,Casper/Natrona County International,42.90805556,-106.4644444
kCPR,kCPR,Casper/Natrona County International,42.90583333,-106.4636111
kCPR,kCPR,Casper/Natrona County International,42.90805556,-106.4644444
kCPR,kCPR,Casper/Natrona County International,42.90583333,-106.4636111
kCPS,kCPS,Bi-State Parks,38.57138889,-90.15722222
kCPX,kCPX,Benjamin Rivera Noriega,18.31305556,-65.30472222
kCPX,kCPX,Benjamin Rivera Noriega,18.31305556,-65.30388889
kCPX,kCPX,Benjamin Rivera Noriega,18.31333333,-65.30444444
kCPX,kCPX,Benjamin Rivera Noriega,18.31305556,-65.30388889
kCQL,kCQL,Glen-Aspen,39.38888889,-107.1594444
kCQL,kCQL,Glen-Aspen,39.38888889,-107.16
kCQW,kCQW,Cheraw Municipal/Lynch Bellinger Field,34.71083333,-79.96166667
kHCW,kHCW,Cheraw Municipal/Lynch Bellinger Field,34.71083333,-79.96166667
kHCW,kHCW,Cheraw Municipal/Lynch Bellinger Field,34.71277778,-79.95694444
kCRE,kCRE,Grand Strand,33.81166667,-78.72416667
kCRE,kCRE,Grand Strand,33.81166667,-78.72388889
kCRG,kCRG,Craig Municipal,30.33638889,-81.51444444
kCRG,kCRG,Jacksonville Executive at Craig,30.33638889,-81.51444444
kCRG,kCRG,Craig Municipal,30.33638889,-81.51444444
kCRG,kCRG,Jacksonville Executive at Craig,30.33638889,-81.51444444
kCRP,kCRP,Corpus Christi International,27.77,-97.50083333
kCRP,kCRP,Corpus Christi International,27.77027778,-97.50111111
kCRP,kCRP,Corpus Christi International,27.77111111,-97.50194444
kCRP,kCRP,Corpus Christi International,27.77083333,-97.50111111
kCRP,kCRP,Corpus Christi International,27.77111111,-97.50111111
kCRP,kCRP,Corpus Christi International,27.77222222,-97.5025
kCRP,kCRP,Corpus Christi International,27.77027778,-97.50111111
kCRP,kCRP,Corpus Christi International,27.77222222,-97.5025
kCRS,kCRS,C David Campbell Field-Corsicana Municipal,32.0275,-96.39805556
kCRS,kCRS,C David Campbell Field-Corsicana Municipal,32.02805556,-96.40055556
kCRW,kCRW,Kanawha,38.37277778,-81.59305556
kCRW,kCRW,Yeager,38.37277778,-81.59305556
kCRW,kCRW,Yeager,38.37305556,-81.59305556
kCRW,kCRW,Yeager,38.37583333,-81.59305556
kCRW,kCRW,Yeager,38.37305556,-81.59305556
kCRW,kCRW,Yeager,38.37583333,-81.59305556
kCRW,kCRW,Yeager,38.37611111,-81.59277778
kCRX,kCRX,Roscoe Turner,34.915,-88.60361111
kCSE,kCSE,Buckhorn Ranch,38.85194444,-106.9322222
kCSE,kCSE,Buckhorn Ranch,38.85194444,-106.9327778
kCSE,kCSE,Crested Butte Airpark,38.85194444,-106.9327778
kCSG,kCSG,Columbus Metropolitan,32.51611111,-84.93888889
kCSG,kCSG,Columbus Metropolitan,32.51638889,-84.93888889
kCSG,kCSG,Columbus Airport,32.51638889,-84.93888889
kCSG,kCSG,Columbus Metropolitan,32.51638889,-84.93888889
kCSG,kCSG,Columbus Airport,32.51638889,-84.93888889
kCSM,kCSM,Clinton/Sherman,35.33972222,-99.20027778
kCSM,kCSM,Sherman,35.33972222,-99.20027778
kCSM,kCSM,Clinton Sherman,35.33972222,-99.20055556
kCSN,kCSN,Carson,39.19166667,-119.7347222
kCSN,kCSN,Carson,39.19222222,-119.7325
kCSP,kCSP,Cape Spencer C.G. Helipad,58.19916667,-136.6388889
kCSP,kCSP,Cape Spencer C.G. Helipad,58.19916667,-136.64
kCSU,kCSU,Cape Sabine Airport,69.02694444,-163.8541667
kCSV,kCSV,Crossville Memorial-Whitson Field,35.95111111,-85.08472222
kCSV,kCSV,Crossville Memorial-Whitson Field,35.95138889,-85.085
kCTB,kCTB,Cut Bank Municipal,48.60833333,-112.3761111
kCTB,kCTB,Cut Bank International,48.60833333,-112.3761111
kCTB,kCTB,Cut Bank Municipal,48.60833333,-112.3761111
kCTB,kCTB,Cut Bank International,48.60833333,-112.3761111
kCTH,kCTH,Chester County G. O. Carlson,39.97888889,-75.86583333
kCTH,kCTH,Chester County G. O. Carlson,39.97888889,-75.86555556
kCTO,kCTO,Calverton Executive Airpark,40.915,-72.79194444
kCTW,kCTW,Cottonwood Airport,34.73,-112.0344444
kCTW,kCTW,Cottonwood Airport,34.73,-112.035
kCTW,kCTW,Cottonwood Airport,34.73,-112.0352778
kCTW,kCTW,Cottonwood Airport,34.73,-112.035
kCTW,kCTW,Cottonwood Airport,34.73,-112.0352778
kCTX,kCTX,Cortland County Chase Field,42.59305556,-76.21527778
kCTX,kCTX,Cortland County Chase Field,42.59277778,-76.215
kCTX,kCTX,Cortland County Chase Field,42.59277778,-76.21472222
kCTX,kCTX,Cortland County Chase Field,42.59277778,-76.215
kCTY,kCTY,Cross City Airport,29.63416667,-83.10611111
kCTY,kCTY,Cross City Airport,29.63555556,-83.10472222
kCUB,kCUB,Owens Field,33.97083333,-80.99555556
kCUB,kCUB,Jim Hamilton L. B. Owens,33.97055556,-80.99527778
kCUW,kCUW,Cube Cove Airport,57.94166667,-134.75
kCVA,kCVA,Civic Arena H/P,40.48333333,-80.21666667
kCVG,kCVG,Cincinnati/Northern Kentucky International,39.04777778,-84.66861111
kCVG,kCVG,Cincinnati/Northern Kentucky International,39.04888889,-84.66777778
kCVN,kCVN,Clovis Municipal,34.42722222,-103.0788889
kCVN,kCVN,Clovis Municipal,34.42638889,-103.0780556
kCVN,kCVN,Clovis Municipal,34.42527778,-103.0791667
kCVN,kCVN,Clovis Municipal,34.42666667,-103.0775
kCVN,kCVN,Clovis Municipal,34.42527778,-103.0791667
kCVN,kCVN,Clovis Municipal,34.42666667,-103.0775
kCVO,kCVO,Corvallis Municipal,44.49722222,-123.2869444
kCVO,kCVO,Corvallis Municipal,44.49722222,-123.2894444
kCVO,kCVO,Corvallis Municipal,44.49694444,-123.2894444
kCVO,kCVO,Corvallis Municipal,44.4975,-123.2880556
kCVS,kCVS,Cannon AFB,34.385,-103.3238889
kCVS,kCVS,Cannon AFB,34.38277778,-103.3222222
kCVS,kCVS,Cannon AFB,34.3825,-103.3225
kCVS,kCVS,Cannon AFB,34.38277778,-103.3222222
kCVS,kCVS,Cannon AFB,34.3825,-103.3225
kCVX,kCVX,Charlevoix Municipal,45.30416667,-85.275
kCVX,kCVX,Charlevoix Municipal,45.30472222,-85.27527778
kCWA,kCWA,Central Wisconsin,44.78222222,-89.65916667
kCWA,kCWA,Central Wisconsin,44.7775,-89.66666667
kCWI,kCWI,Clinton Municipal,41.82944444,-90.33194444
kCWI,kCWI,Clinton Municipal,41.83083333,-90.32888889
kCWS,kCWS,Center Island Airport,48.49,-122.8322222
kCXC,kCXC,Chitina Airport,61.58333333,-144.4277778
kCXC,kCXC,Chitina Airport,61.58277778,-144.4272222
kCXC,kCXC,Chitina Airport,61.58333333,-144.4297222
kCXC,kCXC,Chitina Airport,61.58277778,-144.4272222
kCXC,kCXC,Chitina Airport,61.58333333,-144.4297222
kCXF,kCXF,Coldfoot Airport,67.24944444,-150.2061111
kCXF,kCXF,Coldfoot Airport,67.25222222,-150.2038889
kCXL,kCXL,Calexico International,32.66944444,-115.5125
kCXL,kCXL,Calexico International,32.66944444,-115.5133333
kCXL,kCXL,Calexico International,32.6675,-115.5175
kCXL,kCXL,Calexico International,32.66944444,-115.5133333
kCXL,kCXL,Calexico International,32.6675,-115.5175
kCXO,kCXO,Lone Star Executive,30.35194444,-95.41444444
kCXO,kCXO,Lone Star Executive,30.35222222,-95.41444444
kCXO,kCXO,Lone Star Executive,30.35333333,-95.415
kCXO,kCXO,Conroe North Houston Regional,30.35333333,-95.415
kCXO,kCXO,Lone Star Executive,30.35222222,-95.41444444
kCXO,kCXO,Conroe North Houston Regional,30.35333333,-95.415
kCYF,kCYF,Chefornak Airport,60.14916667,-164.2855556
kCYF,kCYF,Chefornak Airport,60.15361111,-164.2847222
kCYF,kCYF,Chefornak Airport,60.13666667,-164.2791667
kCYF,kCYF,Chefornak Airport,60.13694444,-164.2791667
kCYF,kCYF,Chefornak Airport,60.14916667,-164.2855556
kCYF,kCYF,Chefornak Airport,60.13694444,-164.2791667
kCYM,kCYM,Chatham Airport,57.51527778,-134.9444444
kCYS,kCYS,Cheyenne Regional/Jerry Olson Field,41.15583333,-104.8122222
kCYS,kCYS,Cheyenne Regional/Jerry Olson Field,41.15555556,-104.8105556
kCYT,kCYT,Yakataga,60.08,-142.4944444
kCYT,kCYT,Yakataga,60.08194444,-142.4936111
kCYT,kCYT,Yakataga,60.08083333,-142.4955556
kCYT,kCYT,Yakataga,60.08194444,-142.4936111
kCYT,kCYT,Yakataga,60.08083333,-142.4955556
kCZC,kCZC,Copper Center 2,61.94111111,-145.2941667
kCZF,kCZF,Cape Romanzof AFS,61.78111111,-166.0363889
kCZF,kCZF,Cape Romanzof LRRS,61.78027778,-166.0386111
kCZF,kCZF,Cape Romanzof Airport,61.78027778,-166.0386111
kCZF,kCZF,Cape Romanzof LRRS,61.78027778,-166.0386111
kCZN,kCZN,Chisana Airport,62.07055556,-142.0477778
kCZN,kCZN,Chisana Airport,62.07111111,-142.0483333
kCZN,kCZN,Chisana Airport,62.07166667,-142.0494444
kCZN,kCZN,Chisana Airport,62.07111111,-142.0483333
kCZN,kCZN,Chisana Airport,62.07166667,-142.0494444
kCZO,kCZO,Chistochina Airport,62.56361111,-144.6688889
kCZO,kCZO,Chistochina Airport,62.56222222,-144.6725
kCZO,kCZO,Chistochina Airport,62.56361111,-144.6688889
kCZO,kCZO,Chistochina Airport,62.56222222,-144.6725
kCZP,kCZP,Cape Pole Airport,55.965,-133.7933333
kDAB,kDAB,Daytona Beach Regional,29.1825,-81.05277778
kDAB,kDAB,Daytona Beach International,29.1825,-81.05277778
kDAB,kDAB,Daytona Beach International,29.18,-81.05805556
kDAG,kDAG,Barstow-Daggett,34.85388889,-116.7861111
kDAG,kDAG,Barstow/Daggett,34.85388889,-116.7861111
kDAG,kDAG,Barstow/Daggett,34.85361111,-116.7866667
kDAL,kDAL,Dallas Love Field,32.84694444,-96.85333333
kDAL,kDAL,Dallas Love Field,32.84694444,-96.85138889
kDAL,kDAL,Dallas Love Field,32.84722222,-96.85166667
kDAL,kDAL,Dallas Love Field,32.84583333,-96.85083333
kDAN,kDAN,Danville Regional,36.57305556,-79.335
kDAN,kDAN,Danville Regional,36.57277778,-79.33611111
kDAN,kDAN,Danville Regional,36.5725,-79.33638889
kDAN,kDAN,Danville Regional,36.57277778,-79.33611111
kDAN,kDAN,Danville Regional,36.5725,-79.33638889
kDAY,kDAY,James M Cox/Dayton International,39.90111111,-84.22
kDAY,kDAY,James M Cox/Dayton International,39.90222222,-84.21944444
kDBN,kDBN,W H Bud Barron,32.56416667,-82.98666667
kDBN,kDBN,W H Bud Barron,32.56444444,-82.98527778
kDBN,kDBN,W H Bud Barron,32.56472222,-82.985
kDBN,kDBN,W H Bud Barron,32.56444444,-82.98527778
kDBN,kDBN,W H Bud Barron,32.56472222,-82.985
kDBQ,kDBQ,Dubuque Regional,42.41,-90.71083333
kDBQ,kDBQ,Dubuque Regional,42.40194444,-90.70944444
kDCA,kDCA,Ronald Reagan Washington National,38.85166667,-77.03694444
kDCA,kDCA,Ronald Reagan Washington National,38.85194444,-77.03777778
kDCA,kDCA,Ronald Reagan Washington National,38.85138889,-77.03777778
kDCA,kDCA,Ronald Reagan Washington National,38.85194444,-77.03777778
kDCA,kDCA,Ronald Reagan Washington National,38.85138889,-77.03777778
kDCK,kDCK,Dahl Creek Airport,66.94388889,-156.9019444
kDCK,kDCK,Dahl Creek Airport,66.94333333,-156.9047222
kDCK,kDCK,Dahl Creek Airport,66.9425,-156.8913889
kDCK,kDCK,Dahl Creek Airport,66.94333333,-156.9047222
kDCK,kDCK,Dahl Creek Airport,66.9425,-156.8913889
kDCU,kDCU,Pryor Field Regional,34.65277778,-86.94527778
kDCU,kDCU,Pryor Field Regional,34.65416667,-86.94527778
kDDC,kDDC,Dodge City Regional,37.76166667,-99.965
kDDC,kDDC,Dodge City Regional,37.76305556,-99.96555556
kDDP,kDDP,Dorado Airport,18.46388889,-66.29333333
kDEC,kDEC,Decatur Airport,39.83416667,-88.86861111
kDEC,kDEC,Decatur Airport,39.83444444,-88.86555556
kDEH,kDEH,Decorah Municipal,43.27472222,-91.73888889
kDEH,kDEH,Decorah Municipal,43.27555556,-91.73944444
kDEN,kDEN,Stapleton International,39.77444444,-104.8797222
kDEN,kDEN,Denver International,39.86166667,-104.6730556
kDET,kDET,Detroit City,42.40666667,-83.00833333
kDET,kDET,Coleman A. Young Municipal,42.40666667,-83.00833333
kDET,kDET,Coleman A. Young Municipal,42.40916667,-83.00972222
kDET,kDET,Coleman A. Young Municipal,42.40944444,-83.01027778
kDET,kDET,Coleman A. Young Municipal,42.40916667,-83.00972222
kDET,kDET,Coleman A. Young Municipal,42.40944444,-83.01027778
kDFI,kDFI,Defiance Memorial,41.33722222,-84.42888889
kDFI,kDFI,Defiance Memorial,41.3375,-84.42888889
kDFW,kDFW,Dallas Fort Worth Regional,32.89444444,-97.02972222
kDFW,kDFW,Dallas/Fort Worth International,32.89638889,-97.04111111
kDFW,kDFW,Dallas/Fort Worth International,32.89694444,-97.03805556
kDFW,kDFW,Dallas/Fort Worth International,32.89722222,-97.03777778
kDFW,kDFW,Dallas/Fort Worth International,32.89694444,-97.03805556
kDFW,kDFW,Dallas/Fort Worth International,32.89722222,-97.03777778
kDGB,kDGB,Danger Bay Airport,58.13333333,-152.55
kDGW,kDGW,Converse County,42.79722222,-105.3861111
kDGW,kDGW,Converse County,42.79722222,-105.3858333
kDHN,kDHN,Dothan Regional,31.32,-85.44833333
kDHN,kDHN,Dothan Regional,31.32111111,-85.44944444
kDHT,kDHT,Dalhart Municipal,36.0225,-102.5472222
kDHT,kDHT,Dalhart Municipal,36.0225,-102.5475
kDIK,kDIK,Dickinson Municipal,46.79666667,-102.7963889
kDIK,kDIK,Dickinson - Theodore Roosevelt Regional,46.79722222,-102.8019444
kDIO,kDIO,Diomede Heliport,65.75,-168.95
kDIO,kDIO,Diomede Heliport,65.75861111,-168.9530556
kDJN,kDJN,Delta Junction Airport,64.05055556,-145.7172222
kDJN,kDJN,Delta Junction Airport,64.05,-145.7225
kDJN,kDJN,Delta Junction Airport,64.05055556,-145.7172222
kDJN,kDJN,Delta Junction Airport,64.05,-145.7225
kDKK,kDKK,Chautauqua County/Dunkirk,42.49333333,-79.27194444
kDKK,kDKK,Chautauqua County/Dunkirk,42.49388889,-79.27111111
kDKK,kDKK,Chautauqua County/Dunkirk,42.49333333,-79.27194444
kDKK,kDKK,Chautauqua County/Dunkirk,42.49388889,-79.27111111
kDLF,kDLF,Laughlin AFB,29.35972222,-100.7772222
kDLF,kDLF,Laughlin AFB,29.35944444,-100.7780556
kDLG,kDLG,Dillingham Airport,59.04166667,-158.5066667
kDLG,kDLG,Dillingham Airport,59.04472222,-158.5055556
kDLH,kDLH,Duluth International,46.8425,-92.19027778
kDLH,kDLH,Duluth International,46.84194444,-92.19388889
kDLH,kDLH,Duluth International,46.84194444,-92.19361111
kDLH,kDLH,Duluth International,46.84222222,-92.19361111
kDLH,kDLH,Duluth International,46.84194444,-92.19333333
kDLL,kDLL,Dillon County,34.44916667,-79.36861111
kDLO,kDLO,Dolomi Airport,55.12222222,-132.05
kDLS,kDLS,The Dalles Municipal,45.61944444,-121.1647222
kDLS,kDLS,Columbia Gorge Regional/The Dalles Municipal,45.61861111,-121.1672222
kDLS,kDLS,Columbia Gorge Regional/The Dalles Municipal,45.61944444,-121.1683333
kDLS,kDLS,Columbia Gorge Regional/The Dalles Municipal,45.61861111,-121.1672222
kDLS,kDLS,Columbia Gorge Regional/The Dalles Municipal,45.61944444,-121.1683333
kDMA,kDMA,Davis Monthan AFB,32.16638889,-110.8825
kDMA,kDMA,Davis Monthan AFB,32.16638889,-110.8830556
kDMN,kDMN,Deming Municipal,32.2625,-107.7188889
kDMO,kDMO,Sedalia Memorial,38.7075,-93.17583333
kDMO,kDMO,Sedalia Regional,38.7075,-93.17583333
kDMO,kDMO,Sedalia Memorial,38.7075,-93.17583333
kDMO,kDMO,Sedalia Regional,38.7075,-93.17583333
kDNC,kDNC,Duncan Canal Airport,56.75694444,-133.2216667
kDNE,kDNE,Dallas North,33.07888889,-96.73833333
kDNL,kDNL,Daniel Field,33.46694444,-82.03833333
kDNL,kDNL,Daniel Field,33.46638889,-82.03944444
kDNL,kDNL,Daniel Field,33.46666667,-82.03944444
kDNL,kDNL,Daniel Field,33.46638889,-82.03944444
kDNL,kDNL,Daniel Field,33.46666667,-82.03944444
kDNN,kDNN,Dalton Municipal,34.72194444,-84.86916667
kDNN,kDNN,Dalton Municipal,34.72305556,-84.87027778
kDNV,kDNV,Vermillon County,40.19722222,-87.59694444
kDNV,kDNV,Vermilion Regional,40.19972222,-87.59555556
kDOF,kDOF,Dora Bay Airport,55.23333333,-132.2166667
kDOV,kDOV,Dover AFB,39.12694444,-75.46444444
kDOV,kDOV,Dover AFB,39.12944444,-75.46583333
kDPA,kDPA,Du Page County,41.91555556,-88.24666667
kDPG,kDPG,Michael AAF,40.19944444,-112.9366667
kDPG,kDPG,Michael AAF,40.19944444,-112.9375
kDPG,kDPG,Michael AAF,40.1975,-112.935
kAA8,kAA8,Badami,70.1375,-147.0305556
kDQC,kDQC,Sebastian Municipal,27.81277778,-80.49555556
kDQC,kDQC,Sebastian Municipal,27.81333333,-80.49555556
kDQD,kDQD,Allen H Tigert,42.64166667,-111.58
kDQD,kDQD,Allen H Tigert,42.64861111,-111.5819444
kDQE,kDQE,Holtville Airport,32.84027778,-115.2675
kDQE,kDQE,Holtville Airport,32.845,-115.2686111
kDQG,kDQG,Springfield Robertson County,36.53722222,-86.92055556
kDQG,kDQG,Springfield Robertson County,36.53722222,-86.92083333
kDQG,kDQG,Springfield Robertson County,36.53666667,-86.92111111
kDQG,kDQG,Springfield Robertson County,36.53722222,-86.92055556
kDQG,kDQG,Springfield Robertson County,36.53666667,-86.92111111
kDQH,kDQH,Alpine Air Strip,70.34833333,-150.9316667
kDQH,kDQH,Alpine Airstrip,70.34416667,-150.9447222
kFVL,kFVL,Colusa Airport,39.17916667,-121.9933333
kDQI,kDQI,Colusa Airport,39.17916667,-121.9933333
kDQI,kDQI,Colusa County,39.17888889,-121.9933333
kDQJ,kDQJ,Weydahl Field,47.39277778,-102.7708333
kDQJ,kDQJ,Weydahl Field,47.39138889,-102.7719444
kDQJ,kDQJ,Dunn County Weydahl Field,47.39138889,-102.7719444
kDQJ,kDQJ,Weydahl Field,47.39277778,-102.7708333
kDQJ,kDQJ,Dunn County Weydahl Field,47.39138889,-102.7719444
kDQK,kDQK,Wheeler-Sack AAF,44.05,-75.73305556
kDQK,kDQK,Wheeler-Sack AAF,44.05555556,-75.72
kDQK,kDQK,Wheeler-Sack AAF,44.05583333,-75.71944444
kDQK,kDQK,Wheeler-Sack AAF,44.05555556,-75.72
kDQK,kDQK,Wheeler-Sack AAF,44.05583333,-75.71944444
kDQK,kDQK,Wheeler-Sack AAF,44.05555556,-75.71972222
kDQL,kDQL,Lake Hood Strip,61.18694444,-149.9652778
kDQL,kDQL,Lake Hood Strip,61.18666667,-149.9652778
kDQL,kDQL,Lake Hood,61.18666667,-149.9652778
kDQN,kDQN,New Smyrna Beach Municipal,29.05444444,-80.94805556
kDQN,kDQN,New Smyrna Beach Municipal,29.05555556,-80.94888889
kDQO,kDQO,Delhi Municipal,32.41083333,-91.49861111
kDQP,kDQP,Marshall Field,38.23638889,-89.35861111
kDQQ,kDQQ,Cozad Municipal,40.86916667,-100.0036111
kDQQ,kDQQ,Cozad Municipal,40.86972222,-100.0041667
kDQR,kDQR,Grand Canyon West,35.98861111,-113.81
kDQR,kDQR,Grand Canyon West,35.99027778,-113.8163889
kDQR,kDQR,Grand Canyon West,35.98611111,-113.8169444
kDQS,kDQS,Bar Ten Airstrip,36.25972222,-113.2313889
kDQS,kDQS,Grand Canyon Bar Ten Airstrip,36.25638889,-113.2308333
kDQU,kDQU,Neets Bay,55.77888889,-131.6013889
kDQV,kDQV,Glacier Point,59.1025,-135.3822222
kDQW,kDQW,Hualapai,35.57222222,-113.2925
kDQX,kDQX,Tsui River Airport,60.07472222,-143.0866667
kXMR,kXMR,Cape Canaveral AFS,28.46722222,-80.56666667
kDQY,kDQY,Cape Canaveral AFS,28.46722222,-80.56666667
kDQY,kDQY,Cape Canaveral AFS Skid Strip,28.4675,-80.56666667
kDQZ,kDQZ,Platinum Mine,58.91166667,-161.7138889
kDRA,kDRA,Desert Rock,36.61944444,-116.0319444
kDRA,kDRA,Desert Rock,36.61944444,-116.0327778
kDRA,kDRA,Desert Rock,36.62,-116.0322222
kDRA,kDRA,Desert Rock,36.61944444,-116.0327778
kDRA,kDRA,Desert Rock,36.62,-116.0322222
kDRE,kDRE,Drummond Island Airport,46.01111111,-83.74583333
kDRE,kDRE,Drummond Island Airport,46.00944444,-83.74388889
kDRF,kDRF,Drift River Airport,60.58944444,-152.1577778
kDRF,kDRF,Drift River Airport,60.58888889,-152.1619444
kDRG,kDRG,Deering Airport,66.08083333,-162.7333333
kDRG,kDRG,Deering Airport,66.06944444,-162.7663889
kDRG,kDRG,Deering Airport,66.06916667,-162.7669444
kDRG,kDRG,Deering Airport,66.06944444,-162.7663889
kDRG,kDRG,Deering Airport,66.06916667,-162.7669444
kDRO,kDRO,La Plata County,37.15,-107.7511111
kDRO,kDRO,Durango La Plata County,37.15,-107.7511111
kDRO,kDRO,Durango La Plata County,37.15138889,-107.7538889
kDRO,kDRO,Durango La Plata County,37.16388889,-107.7422222
kDRO,kDRO,Durango La Plata County,37.15138889,-107.7538889
kDRO,kDRO,Durango La Plata County,37.16388889,-107.7422222
kDRO,kDRO,Durango La Plata County,37.15166667,-107.7538889
kDRT,kDRT,Del Rio International,29.37416667,-100.9272222
kDRU,kDRU,Drummond Airport,46.61666667,-113.2
kDRU,kDRU,Drummond Airport,46.62083333,-113.205
kDSI,kDSI,Destin-Ft. Walton Beach,30.4,-86.47138889
kDSI,kDSI,Destin Executive,30.4,-86.47138889
kDSI,kDSI,Destin Ft Walton Beach,30.4,-86.47138889
kDSI,kDSI,Destin Executive,30.4,-86.47138889
kDSM,kDSM,Des Moines Municipal,41.53388889,-93.65666667
kDSM,kDSM,Des Moines International,41.53388889,-93.65666667
kDSM,kDSM,Des Moines International,41.53388889,-93.66305556
kDSM,kDSM,Des Moines International,41.53416667,-93.6575
kDSM,kDSM,Des Moines International,41.53388889,-93.66305556
kDSM,kDSM,Des Moines International,41.53416667,-93.6575
kDSM,kDSM,Des Moines International,41.53388889,-93.66305556
kDTA,kDTA,Delta Airport,39.38305556,-112.5055556
kDTA,kDTA,Delta Municipal,39.37916667,-112.5083333
kDTA,kDTA,Delta Municipal,39.38055556,-112.5077778
kDTA,kDTA,Delta Municipal,39.38361111,-112.5022222
kDTA,kDTA,Delta Municipal,39.38055556,-112.5077778
kDTA,kDTA,Delta Municipal,39.38361111,-112.5022222
kDTH,kDTH,Furnace Creek,36.46388889,-116.8805556
kDTH,kDTH,Furnace Creek,36.46055556,-116.8797222
kDTL,kDTL,Detroit Lakes-Wething Field,46.82638889,-95.88611111
kDTL,kDTL,Detroit Lakes-Wething Field,46.82527778,-95.88555556
kDTN,kDTN,Shreveport Downtown,32.54027778,-93.745
kDTN,kDTN,Shreveport Downtown,32.54083333,-93.74388889
kDTO,kDTO,Denton Municipal,33.20055556,-97.19416667
kDTO,kDTO,Denton Municipal,33.20222222,-97.19805556
kDTO,kDTO,Denton Enterprise,33.20222222,-97.19805556
kDTO,kDTO,Denton Municipal,33.20222222,-97.19805556
kDTO,kDTO,Denton Enterprise,33.20222222,-97.19805556
kDTO,kDTO,Denton Enterprise,33.20194444,-97.19916667
kDTR,kDTR,Decatur,48.51,-122.8030556
kDTT,kDTT,Detroit Metropolitan Area,42.31277778,-83.17861111
kDTW,kDTW,Detroit Metro Wayne County,42.21666667,-83.34444444
kDTW,kDTW,Detroit Metro Wayne County,42.2125,-83.35333333
kDUA,kDUA,Eaker Field,33.93333333,-96.4
kDUC,kDUC,Halliburton Field,34.47222222,-97.95972222
kDUC,kDUC,Halliburton Field,34.47138889,-97.95972222
kDUF,kDUF,Pine Island,36.25333333,-75.78861111
kDUF,kDUF,Pine Island,36.25361111,-75.78861111
kDUG,kDUG,Bisbee Douglas International,31.46888889,-109.6030556
kDUG,kDUG,Bisbee Douglas International,31.46916667,-109.6036111
kDUG,kDUG,Bisbee Douglas International,31.46888889,-109.6038889
kDUG,kDUG,Bisbee Douglas International,31.46916667,-109.6036111
kDUG,kDUG,Bisbee Douglas International,31.46888889,-109.6038889
kDUJ,kDUJ,DuBois Jefferson County,41.17833333,-78.89888889
kDUJ,kDUJ,DuBois Regional,41.17833333,-78.89861111
kDUT,kDUT,Unalaska Airport,53.89583333,-166.5388889
kDUT,kDUT,Unalaska Airport,53.90027778,-166.5436111
kDUT,kDUT,Unalaska Airport,53.89888889,-166.545
kDUT,kDUT,Unalaska Airport,53.90027778,-166.5436111
kDUT,kDUT,Unalaska Airport,53.89888889,-166.545
kDVL,kDVL,Devils Lake Regional,48.11305556,-98.9075
kDVL,kDVL,Devils Lake Regional,48.11472222,-98.90833333
kDVL,kDVL,Devils Lake Regional,48.11666667,-98.91
kDVL,kDVL,Devils Lake Regional,48.11472222,-98.90833333
kDVL,kDVL,Devils Lake Regional,48.11666667,-98.91
kDVN,kDVN,Davenport Municipal,41.61138889,-90.58916667
kDVN,kDVN,Davenport Municipal,41.61027778,-90.58833333
kDVT,kDVT,Phoenix - Deer Valley,33.68333333,-112.0833333
kDVT,kDVT,Phoenix - Deer Valley,33.68833333,-112.0825
kDWA,kDWA,Yolo County,38.57916667,-121.8566667
kDWA,kDWA,Yolo County,38.57944444,-121.8569444
kDWH,kDWH,David Wayne Hooks Memorial,30.06388889,-95.55972222
kDWH,kDWH,David Wayne Hooks Memorial,30.06194444,-95.55277778
kDWH,kDWH,David Wayne Hooks Memorial,30.06166667,-95.55277778
kDWS,kDWS,Walt Disney World,28.38361111,-81.55
kDXR,kDXR,Danbury Municipal,41.37166667,-73.48027778
kDXR,kDXR,Danbury Municipal,41.37166667,-73.48222222
kDYS,kDYS,Dyess AFB,32.42,-99.85666667
kDYS,kDYS,Dyess AFB,32.41833333,-99.85666667
kDYS,kDYS,Dyess AFB,32.42055556,-99.85472222
kDYS,kDYS,Dyess AFB,32.41833333,-99.85666667
kDYS,kDYS,Dyess AFB,32.42055556,-99.85472222
kEAA,kEAA,Eagle Airport,64.77666667,-141.1486111
kEAA,kEAA,Eagle Airport,64.77805556,-141.1497222
kEAG,kEAG,Eagle Creek Strip,67.56222222,-162.9752778
kEAN,kEAN,Phifer Field,42.05555556,-104.9322222
kEAN,kEAN,Phifer Airfield,42.05555556,-104.9286111
kEAN,kEAN,Phifer Airfield,42.05611111,-104.9386111
kEAN,kEAN,Phifer Airfield,42.05555556,-104.9286111
kEAN,kEAN,Phifer Airfield,42.05611111,-104.9386111
kEAN,kEAN,Phifer Airfield,42.05555556,-104.9286111
kEAN,kEAN,Phifer Airfield,42.05555556,-104.9283333
kEAR,kEAR,Kearney Regional,40.72833333,-98.99888889
kEAR,kEAR,Kearney Regional,40.72694444,-99.00666667
kEAT,kEAT,Pangborn Memorial,47.39972222,-120.2077778
kEAT,kEAT,Pangborn Memorial,47.39805556,-120.2058333
kEAT,kEAT,Pangborn Memorial,47.39888889,-120.2069444
kEAT,kEAT,Pangborn Memorial,47.39805556,-120.2058333
kEAT,kEAT,Pangborn Memorial,47.39888889,-120.2069444
kEAU,kEAU,Eau Claire Municipal,44.86444444,-91.48722222
kEAU,kEAU,Chippewa Valley Regional,44.86444444,-91.48722222
kEAU,kEAU,Chippewa Valley Regional,44.86583333,-91.48416667
kECA,kECA,Iosco County,44.31333333,-83.42333333
kECA,kECA,Iosco County,44.31277778,-83.42222222
kECG,kECG,Elizabeth,36.25916667,-76.17305556
kECG,kECG,Elizabeth City CGAS/Regional,36.25916667,-76.17305556
kECG,kECG,Elizabeth City CGAS/Regional,36.26055556,-76.17444444
kECP,kECP,Northwest Florida Beaches International,30.35777778,-85.79888889
kECP,kECP,Northwest Florida Beaches International,30.35833333,-85.79555556
kECS,kECS,Mondell Field,43.88333333,-104.3125
kECS,kECS,Mondell Field,43.88555556,-104.3180556
kECS,kECS,Mondell Field,43.88416667,-104.3144444
kECS,kECS,Mondell Field,43.88555556,-104.3180556
kECS,kECS,Mondell Field,43.88416667,-104.3144444
kECU,kECU,Edwards County,29.94694444,-100.1738889
kEDA,kEDA,Edna Bay Airport,55.93638889,-133.6555556
kEDE,kEDE,Northeastern Regional,36.02861111,-76.56972222
kEDE,kEDE,Northeastern Regional,36.02777778,-76.56722222
kEDF,kEDF,Elmendorf AFB,61.25361111,-149.7916667
kEDF,kEDF,Elmendorf AFB,61.25305556,-149.7938889
kEDF,kEDF,Elmendorf AFB,61.25138889,-149.8063889
kEDW,kEDW,Edwards AFB,34.9,-117.8666667
kEDW,kEDW,Edwards AFB,34.91638889,-117.8625
kEDW,kEDW,Edwards AFB,34.91805556,-117.8791667
kEDW,kEDW,Edwards AFB,34.91638889,-117.8625
kEDW,kEDW,Edwards AFB,34.91805556,-117.8791667
kEED,kEED,Needles Airport,34.75833333,-114.62
kEED,kEED,Needles Airport,34.76638889,-114.6233333
kEEK,kEEK,Eek Airport,60.21666667,-162.0166667
kEEK,kEEK,Eek Airport,60.21361111,-162.0438889
kEEN,kEEN,Dillant Hopkins,42.90083333,-72.27083333
kEEN,kEEN,Dillant Hopkins,42.89833333,-72.27083333
kEFB,kEFB,Eight Fathom Bight Airport,58,-135.7333333
kEFD,kEFD,Ellington Field,29.60722222,-95.15861111
kEFD,kEFD,Ellington,29.60722222,-95.15861111
kEFD,kEFD,Ellington Field,29.60722222,-95.15861111
kEFD,kEFD,Ellington,29.60722222,-95.15861111
kEFK,kEFK,Newport Airport,44.88944444,-72.23
kEFK,kEFK,Newport State,44.88944444,-72.23
kEFK,kEFK,Newport State,44.88888889,-72.22916667
kEFK,kEFK,Newport State,44.88805556,-72.22861111
kEFK,kEFK,Northeast Kingdom International,44.88805556,-72.22861111
kEFK,kEFK,Newport State,44.88888889,-72.22916667
kEFK,kEFK,Northeast Kingdom International,44.88805556,-72.22861111
kEGA,kEGA,Chenega Airport,60.28333333,-148.0833333
kEGE,kEGE,Eagle County Regional,39.64361111,-106.9138889
kEGE,kEGE,Eagle County Regional,39.64277778,-106.9325
kEGE,kEGE,Eagle County Regional,39.64277778,-106.9158333
kEGE,kEGE,Eagle County Regional,39.64277778,-106.9325
kEGE,kEGE,Eagle County Regional,39.64277778,-106.9158333
kEGI,kEGI,Duke Field (Eglin Af Aux Nr 3),30.65027778,-86.52694444
kEGI,kEGI,Duke Field,30.65027778,-86.52277778
kEGI,kEGI,Duke Field,30.64861111,-86.52194444
kEGI,kEGI,Duke Field,30.65027778,-86.52277778
kEGI,kEGI,Duke Field,30.64861111,-86.52194444
kEGP,kEGP,Eagle Pass Airport,28.70222222,-100.4805556
kEGP,kEGP,Eagle Pass Municipal,28.70222222,-100.4805556
kEGT,kEGT,Wellington Municipal,37.32361111,-97.38833333
kEGT,kEGT,Wellington Municipal,37.325,-97.38833333
kEGV,kEGV,Eagle River Union,45.93166667,-89.26888889
kEGV,kEGV,Eagle River Union,45.93222222,-89.26833333
kEGX,kEGX,Egegik Airport,58.20777778,-157.3702778
kEGX,kEGX,Egegik Airport,58.18555556,-157.3755556
kEGX,kEGX,Egegik Airport,58.18444444,-157.3747222
kEHM,kEHM,Cape Newenham AFS,58.64722222,-162.0605556
kEHM,kEHM,Cape Newenham LRRS,58.64638889,-162.0627778
kEHM,kEHM,Cape Newenham LRRS,58.64805556,-162.0630556
kEHM,kEHM,Cape Newenham LRRS,58.64638889,-162.0627778
kEHM,kEHM,Cape Newenham LRRS,58.64805556,-162.0630556
kEHR,kEHR,Eagle Harbor Airport,57.41666667,-152.7166667
kEHT,kEHT,Rentschler,41.75777778,-72.62
kEHT,kEHT,Rentschler Heliport,41.75333333,-72.62833333
kEIL,kEIL,Eielson AFB,64.665,-147.0972222
kEIL,kEIL,Eielson AFB,64.66555556,-147.1013889
kEKA,kEKA,Eureka Airport,40.805,-124.115
kEKA,kEKA,Murray Field,40.80444444,-124.1138889
kEKA,kEKA,Murray Field,40.80333333,-124.1127778
kEKI,kEKI,Elkhart Municipal,41.72222222,-85.99222222
kEKI,kEKI,Elkhart Municipal,41.72222222,-85.99222222
kEKI,kEKI,Elkhart Municipal,41.72222222,-85.99222222
kEKI,kEKI,Elkhart Municipal,41.71944444,-86.00166667
kEKI,kEKI,Elkhart Municipal,41.71944444,-86.00333333
kEKI,kEKI,Elkhart Municipal,41.71944444,-86.00166667
kEKI,kEKI,Elkhart Municipal,41.71944444,-86.00333333
kEKN,kEKN,Elkins-Randolph County-Jennings Randolph Field,38.88944444,-79.85777778
kEKN,kEKN,Elkins-Randolph County-Jennings Randolph Field,38.88944444,-79.85722222
kEKO,kEKO,Elko Regional,40.82388889,-115.7897222
kEKO,kEKO,Elko Regional,40.825,-115.7916667
kEKO,kEKO,Elko Regional,40.825,-115.7913889
kEKO,kEKO,Elko Regional,40.825,-115.7916667
kEKO,kEKO,Elko Regional,40.825,-115.7913889
kEKX,kEKX,Addington Field,37.68694444,-85.92388889
kEKX,kEKX,Addington Field,37.68611111,-85.925
kEKY,kEKY,Bessemer Airport,33.31277778,-86.92583333
kEKY,kEKY,Bessemer Airport,33.3125,-86.92638889
kELA,kELA,Eagle Lake Airport,29.58333333,-96.33333333
kELA,kELA,Eagle Lake Airport,29.60055556,-96.32194444
kELA,kELA,Eagle Lake Airport,29.6,-96.32194444
kELD,kELD,El Dorado Airport,33.22055556,-92.81472222
kELD,kELD,Goodwin Field,33.22055556,-92.81472222
kELD,kELD,South Arkansas Regional at Goodwin Field,33.22083333,-92.81333333
kELD,kELD,South Arkansas Regional at Goodwin Field,33.22111111,-92.81166667
kELI,kELI,Elim Airport,64.61361111,-162.2702778
kELI,kELI,Elim Airport,64.615,-162.2705556
kELM,kELM,Elmira/Corning Regional,42.16083333,-76.89527778
kELM,kELM,Elmira/Corning Regional,42.16,-76.89166667
kELM,kELM,Elmira/Corning Regional,42.15972222,-76.89194444
kELM,kELM,Elmira/Corning Regional,42.16,-76.89166667
kELM,kELM,Elmira/Corning Regional,42.15972222,-76.89194444
kELM,kELM,Elmira/Corning Regional,42.15972222,-76.89166667
kELN,kELN,Bowers Field,47.03388889,-120.5302778
kELN,kELN,Bowers Field,47.03305556,-120.5305556
kELP,kELP,El Paso International,31.80666667,-106.3772222
kELP,kELP,El Paso International,31.80722222,-106.3775
kELP,kELP,El Paso International,31.80722222,-106.3763889
kELP,kELP,El Paso International,31.80722222,-106.3775
kELP,kELP,El Paso International,31.80722222,-106.3763889
kELV,kELV,Elfin Cove Seaplane Base,58.2,-136.3166667
kELW,kELW,Ellamar Seaplane Base,60.89333333,-146.7083333
kELY,kELY,Ely Airport/Yelland Field,39.30194444,-114.8419444
kELY,kELY,Ely Airport/Yelland Field,39.29972222,-114.8419444
kEMK,kEMK,Emmonak Airport,62.78611111,-164.4908333
kEMM,kEMM,Kemmerer Municipal,41.825,-110.5583333
kEMM,kEMM,Kemmerer Municipal,41.82416667,-110.5569444
kEMP,kEMP,Emporia Municipal,38.3325,-96.19083333
kEMP,kEMP,Emporia Municipal,38.33055556,-96.19
kEMT,kEMT,El Monte Airport,34.08583333,-118.0336111
kEMT,kEMT,El Monte Airport,34.08611111,-118.0347222
kEMT,kEMT,San Gabriel Valley,34.08611111,-118.0347222
kEMT,kEMT,El Monte Airport,34.08611111,-118.0347222
kEMT,kEMT,San Gabriel Valley,34.08611111,-118.0347222
kEMT,kEMT,El Monte Airport,34.08611111,-118.0347222
kEMT,kEMT,San Gabriel Valley,34.08611111,-118.0347222
kENA,kENA,Kenai Municipal,60.5675,-151.2511111
kENA,kENA,Kenai Municipal,60.57333333,-151.2447222
kEND,kEND,Vance AFB,36.33972222,-97.91583333
kEND,kEND,Vance AFB,36.33916667,-97.91638889
kEND,kEND,Vance AFB,36.33972222,-97.91722222
kEND,kEND,Vance AFB,36.33916667,-97.91638889
kEND,kEND,Vance AFB,36.33972222,-97.91722222
kENL,kENL,Centralia Municipal,38.51222222,-89.09222222
kENL,kENL,Centralia Municipal,38.515,-89.09111111
kENN,kENN,Nenana Municipal,64.54638889,-149.0833333
kENN,kENN,Nenana Municipal,64.54722222,-149.0738889
kENN,kENN,Nenana Municipal,64.54888889,-149.0744444
kENV,kENV,Wendover Airport,40.71861111,-114.0338889
kENV,kENV,Wendover Airport,40.71861111,-114.0308333
kENV,kENV,Wendover Airport,40.71861111,-114.0286111
kENV,kENV,Wendover Airport,40.71861111,-114.0308333
kENV,kENV,Wendover Airport,40.71861111,-114.0286111
kENW,kENW,Kenosha Regional,42.59583333,-87.92777778
kENW,kENW,Kenosha Regional,42.59555556,-87.92777778
kEOK,kEOK,Keokuk Municipal,40.45833333,-91.43
kEOK,kEOK,Keokuk Municipal,40.46,-91.42861111
kEPH,kEPH,Ephrata,47.30416667,-119.5125
kEPH,kEPH,Ephrata Municipal,47.30805556,-119.5169444
kERI,kERI,Erie International,42.08,-80.17861111
kERI,kERI,Erie International/Tom Ridge Field,42.08,-80.17861111
kERI,kERI,Erie International/Tom Ridge Field,42.08194444,-80.17611111
kERI,kERI,Erie International/Tom Ridge Field,42.08305556,-80.17388889
kERI,kERI,Erie International/Tom Ridge Field,42.08194444,-80.17611111
kERI,kERI,Erie International/Tom Ridge Field,42.08305556,-80.17388889
kERV,kERV,Kerrville Municipal/Louis Schreiner Field,29.97666667,-99.08555556
kESC,kESC,Delta County,45.72055556,-87.08666667
kESC,kESC,Delta County,45.72277778,-87.09361111
kESD,kESD,Orcas Island,48.70833333,-122.9125
kESD,kESD,Orcas Island,48.70833333,-122.9105556
kESF,kESF,Esler Regional,31.39527778,-92.29722222
kESF,kESF,Esler Regional,31.395,-92.29583333
kESN,kESN,Easton Municipal,38.80277778,-76.06777778
kESN,kESN,Easton/Newnam Field,38.80416667,-76.06888889
kESP,kESP,Stroudsburg Pocono,41.03555556,-75.16083333
kESP,kESP,Stroudsburg Pocono,41.03583333,-75.16055556
kETN,kETN,Eastland Municipal,32.41166667,-98.8125
kETN,kETN,Eastland Municipal,32.415,-98.80972222
kETS,kETS,Enterprise Municipal,31.3,-85.9
kETS,kETS,Enterprise Municipal,31.29972222,-85.89972222
kEUE,kEUE,Eureka Airport,39.60722222,-116.0016667
kEUE,kEUE,Eureka Airport,39.60361111,-116.0036111
kEUF,kEUF,Weedon Field,31.95111111,-85.12888889
kEUF,kEUF,Weedon Field,31.95138889,-85.12888889
kEUG,kEUG,Mahlon Sweet Field,44.12083333,-123.2175
kEUG,kEUG,Mahlon Sweet Field,44.12444444,-123.2119444
kEVC,kEVC,Eva Creek Airport,64.0425,-148.8611111
