origin_airport_code,dest_airport_code,airport_name,latitude,longitude
K01A,K01A,Afognak Lake Airport,58.10944444,-152.9066667
K03A,K03A,Bear Creek Mining Strip,65.54805556,-161.0716667
K04A,K04A,Lik Mining Camp,68.08333333,-163.1666667
K05A,K05A,Little Squaw Airport,67.57,-148.1838889
K06A,K06A,Kizhuyak Bay,57.74527778,-152.8827778
K07A,K07A,Klawock Seaplane Base,55.55472222,-133.1016667
K08A,K08A,Elizabeth Island Airport,59.15694444,-151.8291667
K09A,K09A,Augustin Island,59.36277778,-153.4305556
K1B1,K1B1,Columbia County,42.28888889,-73.71027778
K1B1,K1B1,Columbia County,42.29138889,-73.71027778
K1G4,K1G4,Grand Canyon West,35.99027778,-113.8163889
K1G4,K1G4,Grand Canyon West,35.98611111,-113.8169444
K1G4,K1G4,Grand Canyon West,35.99027778,-113.8163889
K1G4,K1G4,Grand Canyon West,35.98611111,-113.8169444
K1N7,K1N7,Blairstown Airport,40.97111111,-74.9975
K8F3,K8F3,Crosbyton Municipal,33.62388889,-101.2408333
KA01,KA01,Blair Lake,64.36416667,-147.3613889
KA01,KA01,Blair Lake,64.36361111,-147.3638889
KA02,KA02,Deadmans Bay Airport,57.06666667,-153.9377778
KA03,KA03,Hallo Bay Airport,58.4575,-154.0233333
KA04,KA04,Red Lake Airport,57.27722222,-154.3422222
KA05,KA05,Shell Lake Airport,61.96388889,-151.5558333
KA06,KA06,Navigator Airstrip,65.65555556,-165.3563889
KA07,KA07,Roland Norton Memorial Airstrip,66.76583333,-160.1525
KA07,KA07,Roland Norton Memorial,66.76611111,-160.1527778
KA08,KA08,Pillar Bay Airport,56.59805556,-134.2427778
KJOH,KJOH,Johnstone Point Airport,60.48138889,-146.5822222
KA09,KA09,Johnstone Point Airport,60.48222222,-146.5822222
KA09,KA09,Johnstone Point Airport,60.48166667,-146.5841667
KA09,KA09,Johnstone Point Airport,60.48222222,-146.5822222
KA09,KA09,Johnstone Point Airport,60.48166667,-146.5841667
KTLK,KTLK,Tikchik Lodge Airport,59.95555556,-158.4805556
KKTH,KKTH,Tikchik Lodge Airport,59.95555556,-158.4805556
KA11,KA11,Bell Creek Airport,60.78388889,-159.5402778
KA12,KA12,Cinnabar Airport,60.78527778,-158.8644444
KA13,KA13,Mountaintop Mine Airport,61.39027778,-157.9955556
KA14,KA14,Whitebear Airport,61.18888889,-159.8583333
KA15,KA15,Puviaq Airport,70.71861111,-154.3883333
KA15,KA15,Puviaq Airport,70.71555556,-154.4069444
KA16,KA16,Arley Lake Airport,70.74694444,-155.3608333
KA17,KA17,Port Vita Airport,58.06555556,-153.0725
KA18,KA18,Kantishna Airport,63.54166667,-150.9938889
KA18,KA18,Kantishna Airport,63.54111111,-150.995
KA18,KA18,Kantishna Airport,63.54166667,-150.9938889
KA18,KA18,Kantishna Airport,63.54111111,-150.995
KA20,KA20,Alpine Airstrip,70.34416667,-150.9447222
KA21,KA21,Serpentine Airport,65.85138889,-164.7027778
KA22,KA22,Driftwood Bay Airport,53.97277778,-166.8569444
KA23,KA23,Bradley Lake Airport,59.77611111,-151.9636111
KA24,KA24,Chilkat Lake Airport,59.33166667,-135.8966667
KA25,KA25,Nugget Creek Airport,59.28833333,-136.1738889
KA26,KA26,Ivotuk Airstrip,68.48333333,-155.7333333
KA27,KA27,Pogo Mines Airport,64.44,-144.9363889
KA28,KA28,Ayakulik River Airport,57.25388889,-154.4222222
KA29,KA29,Kiluda Bay Airport,57.32305556,-153.1494444
KA30,KA30,Terror Lake Airport,57.96388889,-153.0583333
KA31,KA31,Selief Bay Airport,58.98277778,-153.1833333
KA34,KA34,Laura Lake Airport,58.36194444,-152.3122222
KA36,KA36,Deep Bay Airport,55.56027778,-131.6555556
KA37,KA37,Kako Airport,61.89888889,-161.4380556
KA37,KA37,Kako Airport,61.89888889,-161.4397222
KA38,KA38,Molly Creek Airport,64.09722222,-143.2666667
KA39,KA39,Ptarmigan Lake Airport,61.86611111,-141.1597222
KA40,KA40,Cape Simpson Airport,71.05694444,-154.7283333
KA41,KA41,Kogru River Airport,70.57611111,-152.2711111
KA41,KA41,Kogru River Airport,70.57472222,-152.2588889
KA42,KA42,Teshepkuk Lake Airport,70.35833333,-153.1966667
KA43,KA43,Trident Basin Seaplane Base,57.78083333,-152.3911111
KA45,KA45,Lake Florence Airport,57.81666667,-134.5833333
KA46,KA46,Lake Hasselborg Airport,57.7,-134.2666667
KA47,KA47,Distin Lake Airport,57.61666667,-134.3666667
KA48,KA48,Port Hobron Airport,57.15,-153.15
KA49,KA49,Mooseville Airstrip Airport,70.28444444,-152.2119444
KA50,KA50,Big Bay Airport,58.5625,-152.5961111
KA51,KA51,Wien Lake Airport,64.35277778,-151.275
KA52,KA52,Silver Salmon Creek Airport,59.96388889,-152.6822222
KA53,KA53,Blear Lake Airport,64.33333333,-147.5
KA54,KA54,Cannery Bay Airport,53.68333333,-166.75
KA56,KA56,Johnsons Landing,56.03666667,-160.2661111
KVZK,KVZK,International Seafoods Airport,58.26666667,-157.5333333
KA57,KA57,International Seafoods Airport,58.26666667,-157.5333333
KA58,KA58,Cosna River Airport,64.5,-151.6666667
KA59,KA59,Ivatuk Airport,68.48777778,-155.7575
KA61,KA61,Cape Sarichef AFS,54.58333333,-164.9125
KA61,KA61,Cape Sarichef Airport,54.5825,-164.9144444
KA62,KA62,Taylor Mountain,60.86777778,-157.3919444
KA63,KA63,Coal Creek,65.31111111,-143.1352778
KA63,KA63,Coal Creek,65.31138889,-143.1355556
KA63,KA63,Coal Creek,65.31166667,-143.1341667
KA63,KA63,Coal Creek,65.31138889,-143.1355556
KA63,KA63,Coal Creek,65.31166667,-143.1341667
KA65,KA65,Karluk Portage Airport,57.53833333,-154.1644444
KA66,KA66,Hope Airport,60.90555556,-149.6238889
KA66,KA66,Hope Airport,60.90416667,-149.6238889
KA66,KA66,Hope Airport,60.90722222,-149.6227778
KA66,KA66,Hope Airport,60.90416667,-149.6238889
KA66,KA66,Hope Airport,60.90722222,-149.6227778
KA67,KA67,Viekoda Bay Airport,57.84944444,-153.1152778
KA69,KA69,Cathedral Strip,55.74,-162.1252778
KA70,KA70,Village Islands Airport,57.77416667,-153.5447222
KA71,KA71,Bear Cove Farm,59.73833333,-151.03
KA72,KA72,Chinitna Bay Airport,59.83333333,-152.5847222
KA73,KA73,McKinley National Park,63.7325,-148.9105556
KA74,KA74,Dog Fish Bay,59.24111111,-151.8772222
KA75,KA75,Malina Bay Airport,58.17194444,-152.8941667
KA76,KA76,Red Fox Bay Airport,58.46444444,-152.5930556
KA77,KA77,Shearwater Airport,57.34333333,-152.8972222
KA78,KA78,Lake,71.03,-154.4436111
KA79,KA79,Cape Simpson No. 1,71.50166667,-154.0338889
KA80,KA80,Cape Simpson No. 7,70.57388889,-155.3213889
KA81,KA81,Cape Simpson #1,70.66277778,-154.8366667
KA82,KA82,Nikiski Private Airstrip,60.69027778,-151.2888889
KA83,KA83,Petrof Point Airport,59.37638889,-150.765
KA84,KA84,Denali West Lodge Private,63.75555556,-147.93
KA85,KA85,Big River Airport,61.85944444,-154.2766667
KA87,KA87,Carry Inlet Airport,58.58305556,-152.4458333
KA89,KA89,Montague Island Airport,59.925,-147.5166667
KA90,KA90,Shannon Pond Airport,59.03916667,-158.4638889
KA91,KA91,Omalik Lagoon Airport,69.15555556,-163.4972222
KA92,KA92,Omolik Lagoon Airport,69.14805556,-163.5102778
KA93,KA93,Bradley Lake Project Airport,59.79166667,-151.2666667
KA94,KA94,Ice Strip,70.57416667,-155.3180556
KA95,KA95,Ice Strip,70.31194444,-153.2491667
KA96,KA96,Ice Strip,70.98083333,-157.095
KA97,KA97,Akulik Air Strip,68.98555556,-163.4797222
KA98,KA98,Deadfall Air Strip,69.17083333,-163.2563889
KA99,KA99,Eagle Creek Airport,68.67666667,-162.6469444
KAA1,KAA1,Ice Kong,59.95277778,-162.6169444
KAA4,KAA4,Glacier Split,59.63333333,-151.2083333
KAA5,KAA5,Selby Lake Airport,66.95583333,-155.615
KAAA,KAAA,Anaa Airport,-17.35388889,-145.5097222
KAAA,KAAA,Anaa Airport,-17.3525,-145.51
KAAB,KAAB,Arrabury Station,-26.7,141.0416667
KAAC,KAAC,El Arish International,31.07638889,33.83333333
KAAC,KAAC,El Arish International,31.07333333,33.83583333
KAAE,KAAE,Rabah Bitat,36.82166667,7.81
KAAE,KAAE,Rabah Bitat,36.82222222,7.80944444
KAAE,KAAE,Rabah Bitat,36.82944444,7.81388889
KAAF,KAAF,Apalachicola Regional,29.7275,-85.0275
KAAF,KAAF,Apalachicola Regional Cleve Randolph Field,29.7275,-85.0275
KAAF,KAAF,Apalachicola Regional,29.7275,-85.0275
KAAF,KAAF,Apalachicola Regional Cleve Randolph Field,29.7275,-85.0275
KAAH,KAAH,Aachen/Merzbruck,50.82305556,6.18611111
KAAH,KAAH,Aachen/Merzbruck,50.82305556,6.18611111
KAAH,KAAH,Aachen/Merzbruck,50.82305556,6.1875
KAAH,KAAH,Aachen Merzbrueck,50.82305556,6.1875
KAAH,KAAH,Aachen Merzbruck,50.82305556,6.1875
KAAH,KAAH,Aachen Merzbrueck,50.82305556,6.1875
KAAI,KAAI,Arraias Airport,-12.91666667,-46.93333333
KAAI,KAAI,Arraias Airport,-13.025,-46.88416667
KAAI,KAAI,Arraias Airport,-13.02583333,-46.88361111
KAAI,KAAI,Arraias Airport,-13.025,-46.88416667
KAAI,KAAI,Arraias Airport,-13.02583333,-46.88361111
KAAL,KAAL,Aalborg Airport,57.09305556,9.85
KAAL,KAAL,Aalborg Airport,57.09277778,9.84916667
KAAL,KAAL,Aalborg Airport,57.09416667,9.85583333
KAAM,KAAM,Malamala,-24.80833333,31.54166667
KAAM,KAAM,Malamala,-24.81694444,31.54416667
KAAN,KAAN,Al Ain International,24.26166667,55.60916667
KAAN,KAAN,Al Ain International,24.26194444,55.6075
KAAN,KAAN,Al Ain International,24.26166667,55.60916667
KAAO,KAAO,Anaco Airport,9.43194444,-64.46388889
KAAO,KAAO,Anaco Airport,9.43027778,-64.47083333
KAAO,KAAO,Anaco Airport,9.43,-64.47083333
KAAO,KAAO,Anaco Airport,9.43027778,-64.47083333
KAAO,KAAO,Anaco Airport,9.43,-64.47083333
KAAQ,KAAQ,Vityazevo,44.9,37.31666667
KAAQ,KAAQ,Vityazevo,45.00222222,37.34722222
KAAQ,KAAQ,Anapa Airport,45.00222222,37.34722222
KAAQ,KAAQ,Vityazevo,45.00222222,37.34722222
KAAR,KAAR,Tirstrup,56.31027778,10.61805556
KAAR,KAAR,Tirstrup,56.30388889,10.62
KAAR,KAAR,Aarhus Airport,56.3,10.61888889
KAAU,KAAU,Asau W Sam,-13.51666667,-172.65
KAAX,KAAX,Araxa Airport,-19.56805556,-46.92916667
KAAX,KAAX,Araxa Airport,-19.56333333,-46.96027778
KAAX,KAAX,Romeu Zema,-19.56333333,-46.96027778
KABD,KABD,Abadan Airport,30.36611111,48.23222222
KABD,KABD,Abadan Airport,30.36611111,48.23222222
KABD,KABD,Abadan Airport,30.36527778,48.23305556
KABE,KABE,Lehigh Valley International,40.65472222,-75.43833333
KABE,KABE,Lehigh Valley International,40.65222222,-75.44027778
KABE,KABE,Lehigh Valley International,40.65222222,-75.44055556
KABE,KABE,Lehigh Valley International,40.65222222,-75.44027778
KABE,KABE,Lehigh Valley International,40.65222222,-75.44055556
KABE,KABE,Lehigh Valley International,40.6525,-75.44027778
KABI,KABI,Abilene Regional,32.40944444,-99.67972222
KABI,KABI,Abilene Regional,32.41111111,-99.68166667
KABI,KABI,Abilene Regional,32.41138889,-99.68194444
KABJ,KABJ,Abidjan Felix Houphouet Boigny International,5.25555556,-3.92916667
KABJ,KABJ,Abidjan Felix Houphouet Boigny International,5.26138889,-3.92583333
KABJ,KABJ,Felix Houphouet Boigny Abidjan,5.26138889,-3.92583333
KABJ,KABJ,Felix Houphouet Boigny Abidjan International,5.26138889,-3.92583333
KABJ,KABJ,Abidjan Felix Houphouet Boigny International,5.26138889,-3.92583333
KABJ,KABJ,Felix Houphouet Boigny Abidjan International,5.26138889,-3.92583333
KABK,KABK,Kabri Dar Airport,6.73388889,44.26611111
KABK,KABK,Kebri Dahar,6.73277778,44.24166667
KABK,KABK,Kebri Dahar,6.73277778,44.24138889
KABK,KABK,Kebri Dahar,6.73277778,44.24166667
KABK,KABK,Kebri Dahar,6.73277778,44.24138889
KABL,KABL,Ambler River,67.0875,-157.8458333
KABQ,KABQ,Albuquerque International Sunport,35.04166667,-106.6063889
KABQ,KABQ,Albuquerque International Sunport,35.04027778,-106.6091667
KABQ,KABQ,Albuquerque International Sunport,35.03888889,-106.6083333
KABQ,KABQ,Albuquerque International Sunport,35.04027778,-106.6091667
KABQ,KABQ,Albuquerque International Sunport,35.03888889,-106.6083333
KABR,KABR,Aberdeen Regional,45.44972222,-98.42166667
KABR,KABR,Aberdeen Regional,45.44916667,-98.42194444
KABR,KABR,Aberdeen Regional,45.44833333,-98.4225
KABR,KABR,Aberdeen Regional,45.44666667,-98.4225
KABR,KABR,Aberdeen Regional,45.44916667,-98.42194444
KABR,KABR,Aberdeen Regional,45.44666667,-98.4225
KABS,KABS,Abu Simbel Airport,22.37222222,31.61527778
KABS,KABS,Abu Simbel Airport,22.37472222,31.60944444
KABS,KABS,Abu Simbel Airport,22.37583333,31.61166667
KABS,KABS,Abu Simbel Airport,22.37472222,31.60944444
KABS,KABS,Abu Simbel Airport,22.37583333,31.61166667
KBBH,KBBH,Al-Baha Airport,20.29611111,41.63416667
KABT,KABT,Al-Baha Airport,20.29611111,41.63416667
KABT,KABT,King Saud Bin Abdulaziz,20.29611111,41.63416667
KABT,KABT,Al Baha,20.29611111,41.63416667
KABT,KABT,King Saud Bin Abdulaziz,20.29611111,41.63416667
KABT,KABT,King Saud Bin Abdulaziz,20.29833333,41.63583333
KABV,KABV,Abuja Nnamdi Azikiwe International,9.00555556,7.26611111
KABV,KABV,Abuja Nnamdi Azikiwe International,9.00666667,7.26305556
KABV,KABV,Nnamdi Azikiwe International,9.00666667,7.26305556
KABV,KABV,Abuja Nnamdi Azikiwe International,9.00666667,7.26305556
KABV,KABV,Nnamdi Azikiwe International,9.00666667,7.26305556
KABX,KABX,Albury Airport,-36.06833333,146.9766667
KABX,KABX,Albury Airport,-36.06777778,146.9580556
KABY,KABY,Southwest Georgia Regional,31.53222222,-84.19611111
KABY,KABY,Southwest Georgia Regional,31.53555556,-84.19444444
KABZ,KABZ,Aberdeen Dyce,57.20416667,-2.19861111
KABZ,KABZ,Aberdeen Dyce,57.20194444,-2.19777778
KABZ,KABZ,Aberdeen Dyce,57.2025,-2.19805556
KABZ,KABZ,Aberdeen Dyce,57.20361111,-2.19916667
KABZ,KABZ,Aberdeen Dyce,57.20194444,-2.19777778
KABZ,KABZ,Aberdeen Dyce,57.20361111,-2.19916667
KACA,KACA,General Juan N Alvarez International,16.75555556,-99.76694444
KACA,KACA,General Juan N Alvarez International,16.75694444,-99.75388889
KACB,KACB,Antrim County,44.98472222,-85.19916667
KACB,KACB,Antrim County,44.98861111,-85.19833333
KACC,KACC,Accra Kotoka International,5.59527778,-0.17083333
KACC,KACC,Accra Kotoka International,5.60444444,-0.1675
KACE,KACE,Lanzarote,28.9425,-13.60472222
KACE,KACE,Lanzarote,28.94555556,-13.60527778
KACH,KACH,St Gallen Altenrhein,47.48527778,9.56
KACH,KACH,St Gallen Altenrhein,47.485,9.56
KACI,KACI,Alderney Airport,49.70694444,-2.21527778
KACI,KACI,Alderney Airport,49.70611111,-2.21472222
KACI,KACI,Alderney Airport,49.70666667,-2.21444444
KACI,KACI,Alderney Airport,49.70666667,-2.21472222
KACI,KACI,Alderney Airport,49.70611111,-2.21472222
KACI,KACI,Alderney Airport,49.70666667,-2.21472222
KACI,KACI,Alderney Airport,49.70694444,-2.21472222
KACK,KACK,Nantucket Memorial,41.25666667,-70.05972222
KACK,KACK,Nantucket Memorial,41.25305556,-70.06027778
KACK,KACK,Nantucket Memorial,41.25305556,-70.06
KACK,KACK,Nantucket Memorial,41.25305556,-70.06027778
KACK,KACK,Nantucket Memorial,41.25305556,-70.06
KACT,KACT,Waco Regional,31.61138889,-97.22861111
KACT,KACT,Waco Regional,31.61222222,-97.23027778
KACU,KACU,Achutupo Airport,8.43333333,-77.96666667
KACV,KACV,Arcata,40.97916667,-124.1075
KACV,KACV,Arcata,40.97805556,-124.1086111
KACV,KACV,Arcata,40.97777778,-124.1083333
KACV,KACV,California Redwood Coast Humboldt County,40.97777778,-124.1083333
KACV,KACV,Arcata,40.97805556,-124.1086111
KACV,KACV,California Redwood Coast Humboldt County,40.97777778,-124.1083333
KACY,KACY,Nafec Atlantic City,39.45611111,-74.57805556
KACY,KACY,Nafec Atl,39.45666667,-74.57777778
KACY,KACY,Atlantic City International,39.4575,-74.57805556
KACY,KACY,Atlantic City International,39.4575,-74.57722222
KADA,KADA,Adana Sakirpasa,36.98361111,35.28083333
KADA,KADA,Adana International,36.98222222,35.28027778
KADB,KADB,Adnan Menderes,38.29472222,27.16
KADB,KADB,Adnan Menderes,38.29222222,27.15583333
KADC,KADC,Andakombe Airport,-7.13611111,145.7441667
KADC,KADC,Andakombe Airport,-7.13638889,145.7438889
KADC,KADC,Andakombe Airport,-7.13722222,145.745
KADD,KADD,Haile Selassie I International,8.97805556,38.79944444
KADD,KADD,Bole International,8.97805556,38.79944444
KADE,KADE,Aden International,12.82777778,45.03055556
KADE,KADE,Aden International,12.83444444,45.02888889
KADE,KADE,Aden International,12.82944444,45.02888889
KADJ,KADJ,King Abdullah Ben,31.97222222,35.99
KADJ,KADJ,Marka International,31.97222222,35.99
KADJ,KADJ,Marka International,31.97277778,35.99166667
KADK,KADK,Adak NS,51.88277778,-176.6447222
KADK,KADK,Adak,51.87805556,-176.6461111
KADK,KADK,Adak,51.87805556,-176.6458333
KADK,KADK,Adak,51.88361111,-176.6425
KADK,KADK,Adak,51.87805556,-176.6461111
KADK,KADK,Adak,51.88361111,-176.6425
KADL,KADL,Adelaide International,-34.94833333,138.5347222
KADL,KADL,Adelaide International,-34.945,138.5305556
KADM,KADM,Ardmore Municipal,34.30305556,-97.01972222
KADM,KADM,Ardmore Municipal,34.30416667,-97.02055556
KADM,KADM,Ardmore Municipal,34.30388889,-97.02055556
KADM,KADM,Ardmore Municipal,34.30416667,-97.02055556
KADM,KADM,Ardmore Municipal,34.30388889,-97.02055556
KADN,KADN,Andes Airport,5.66666667,-75.88333333
KADN,KADN,Andes Airport,5.69805556,-75.87972222
KADN,KADN,Andes Airport,5.69777778,-75.88027778
KADN,KADN,Andes Airport,5.69805556,-75.87972222
KADN,KADN,Andes Airport,5.69777778,-75.88027778
KADO,KADO,Andamooka Airport,-30.43777778,137.1372222
KADQ,KADQ,Kodiak Airport,57.75,-152.4938889
KADQ,KADQ,Kodiak Airport,57.74972222,-152.4938889
KADQ,KADQ,Kodiak Airport,57.75,-152.4938889
KADQ,KADQ,Kodiak Airport,57.74972222,-152.4938889
KADS,KADS,Addison,32.96833333,-96.83611111
KADS,KADS,Addison,32.96861111,-96.83638889
KADW,KADW,Andrews AFB,38.81083333,-76.86722222
KADW,KADW,Andrews AFB,38.81083333,-76.86694444
KADW,KADW,Joint Base Andrews,38.81083333,-76.86694444
KADW,KADW,Andrews AFB,38.81083333,-76.86694444
KADW,KADW,Joint Base Andrews,38.81083333,-76.86694444
KADX,KADX,RAF Leuchars,56.37277778,-2.86833333
KADX,KADX,RAF Leuchars,56.37277778,-2.86861111
KADX,KADX,RAF Leuchars,56.37416667,-2.86861111
KADX,KADX,RAF Leuchars,56.37277778,-2.86833333
KADX,KADX,RAF Leuchars,56.37416667,-2.86861111
KADZ,KADZ,San Andres,12.58333333,-81.7
KADZ,KADZ,Sesquicentenario,12.58305556,-81.71166667
KADZ,KADZ,Gustavo Rojas Pinilla,12.58361111,-81.71138889
KDHF,KDHF,Al Dhafra Air Base,24.24833333,54.54777778
KAED,KAED,Aleneva Airport,58.03333333,-152.9
KAEG,KAEG,Aek Godang,1.4,99.43055556
KAEH,KAEH,Abeche Airport,13.85138889,20.85083333
KAEH,KAEH,Abeche Airport,13.84694444,20.84361111
KAEH,KAEH,Abeche Airport,13.8475,20.84333333
KAEO,KAEO,Aioun El Atrouss Airport,16.70916667,-9.63555556
KAEO,KAEO,Aioun El Atrouss Airport,16.71138889,-9.63777778
KAEP,KAEP,Aeroparque Jorge Newbery,-34.55888889,-58.41583333
KAEP,KAEP,Aeroparque Jorge Newbery,-34.55916667,-58.41583333
KAER,KAER,Adler/Sochi Airport,43.45,39.93333333
KAER,KAER,Adler/Sochi Airport,43.45,39.93333333
KAES,KAES,Vigra,62.5625,6.10527778
KAES,KAES,Vigra,62.56111111,6.11416667
KAES,KAES,Vigra,62.56027778,6.11027778
KAET,KAET,Allakaket Airport,66.56166667,-152.6583333
KAET,KAET,Allakaket Airport,66.55194444,-152.6222222
KAEX,KAEX,England AFB,31.32416667,-92.54694444
KAEX,KAEX,Alexandria International,31.3275,-92.54861111
KAEY,KAEY,Akureyri Airport,65.65694444,-18.07222222
KAEY,KAEY,Akureyri Airport,65.66,-18.07277778
KAEY,KAEY,Akureyri Airport,65.65666667,-18.07194444
KAEY,KAEY,Akureyri Airport,65.66,-18.07277778
KAEY,KAEY,Akureyri Airport,65.65666667,-18.07194444
KAFA,KAFA,San Rafael Airport,-34.58916667,-68.40055556
KAFA,KAFA,San Rafael Airport,-34.58777778,-68.40333333
KAFA,KAFA,San Rafael Airport,-34.58861111,-68.40277778
KAFA,KAFA,San Rafael Airport,-34.58777778,-68.40361111
KAFA,KAFA,San Rafael Airport,-34.58777778,-68.40333333
KAFA,KAFA,San Rafael Airport,-34.58777778,-68.40361111
KAFF,KAFF,USAF Academy Airfield,38.96972222,-104.8125
KAFF,KAFF,USAF Academy Airfield,38.96972222,-104.8127778
KAFF,KAFF,USAF Academy Airfield,38.97416667,-104.8177778
KAFF,KAFF,USAF Academy Airfield,38.96972222,-104.8127778
KAFF,KAFF,USAF Academy Airfield,38.97416667,-104.8177778
KAFK,KAFK,Nebraska City Municipal,40.60694444,-95.86583333
KAFK,KAFK,Nebraska City Municipal,40.60555556,-95.86777778
KAFK,KAFK,Nebraska City Municipal,40.60638889,-95.86666667
KAFK,KAFK,Nebraska City Municipal,40.60666667,-95.86666667
KAFK,KAFK,Nebraska City Municipal,40.60555556,-95.86777778
KAFK,KAFK,Nebraska City Municipal,40.60666667,-95.86666667
KAFO,KAFO,Afton Municipal,42.71666667,-110.9333333
KAFO,KAFO,Afton Municipal,42.70888889,-110.9422222
KAFP,KAFP,Anson County,35.02388889,-80.08138889
KAFP,KAFP,Anson County,35.02055556,-80.07722222
KAFP,KAFP,Anson County Jeff Cloud Field,35.02055556,-80.07722222
KAFP,KAFP,Anson County,35.02055556,-80.07722222
KAFP,KAFP,Anson County Jeff Cloud Field,35.02055556,-80.07722222
KAFW,KAFW,Fort Worth Alliance,32.98666667,-97.3175
KAFW,KAFW,Fort Worth Alliance,32.98777778,-97.31888889
KAFW,KAFW,Fort Worth Alliance,32.9875,-97.31888889
KAFW,KAFW,Fort Worth Alliance,32.98944444,-97.31944444
KAFW,KAFW,Fort Worth Alliance,32.98777778,-97.31888889
KAFW,KAFW,Fort Worth Alliance,32.98944444,-97.31944444
KAFW,KAFW,Fort Worth Alliance,32.99027778,-97.31944444
KAFY,KAFY,Afyon Airport,38.735,30.59555556
KAFY,KAFY,Afyon Airport,38.72638889,30.60111111
KAGA,KAGA,Agadir/Inezgane,30.38055556,-9.54583333
KAGA,KAGA,Inezgane,30.38138889,-9.54611111
KAGB,KAGB,Muehlhausen,48.42611111,10.93305556
KAGB,KAGB,Augsburg Airport,48.42444444,10.93222222
KAGB,KAGB,Augsburg Airport,48.42527778,10.93194444
KAGC,KAGC,Allegheny County,40.35472222,-79.93
KAGC,KAGC,Allegheny County,40.35472222,-79.93
KAGC,KAGC,Allegheny County,40.35444444,-79.93027778
KAGC,KAGC,Allegheny County,40.35444444,-79.92916667
KAGC,KAGC,Allegheny County,40.35444444,-79.93027778
KAGC,KAGC,Allegheny County,40.35444444,-79.92916667
KAGF,KAGF,La Garenne,44.17361111,0.59861111
KAGF,KAGF,La Garenne,44.17388889,0.59305556
KAGF,KAGF,Agen La Garenne,44.17388889,0.59305556
KAGF,KAGF,Agen La Garenne,44.17472222,0.59055556
KAGF,KAGF,La Garenne,44.17388889,0.59305556
KAGF,KAGF,Agen La Garenne,44.17472222,0.59055556
KAGF,KAGF,Agen La Garenne,44.17388889,0.59305556
KAGG,KAGG,Angoram Airport,-4.06583333,144.0738889
KAGH,KAGH,Angelholm-Helsingborg,56.29305556,12.8625
KAGH,KAGH,Angelholm-Helsingborg,56.29583333,12.84972222
KAGH,KAGH,Angelholm,56.29166667,12.855
KAGH,KAGH,Angelholm,56.29111111,12.855
KAGH,KAGH,Angelholm,56.29166667,12.855
KAGH,KAGH,Angelholm,56.29111111,12.855
KAGK,KAGK,Kagua Airport,-6.40333333,143.8466667
KAGL,KAGL,Wanigela Airport,-9.34027778,149.1552778
KAGL,KAGL,Wanigela Airport,-9.3375,149.1555556
KAGN,KAGN,Angoon Seaplane Base,57.50388889,-134.5833333
KAGP,KAGP,Malaga Airport,36.67166667,-4.49805556
KAGP,KAGP,Malaga Airport,36.675,-4.49916667
KAGP,KAGP,Malaga Airport,36.67972222,-4.49583333
KAGP,KAGP,Malaga Airport,36.68,-4.49583333
KAGP,KAGP,Malaga Costa del Sol,36.68,-4.49583333
KAGP,KAGP,Malaga Airport,36.675,-4.49916667
KAGP,KAGP,Malaga Costa del Sol,36.68,-4.49583333
KAGP,KAGP,Malaga Airport,36.67972222,-4.49583333
KAGQ,KAGQ,Agrinion New,38.60416667,21.35194444
KAGQ,KAGQ,Agrinion Airport,38.60194444,21.35111111
KAGR,KAGR,Agra Airport,27.15833333,77.96277778
KAGR,KAGR,Agra Airport,27.15777778,77.96083333
KAGS,KAGS,Bush Field,33.36916667,-81.96444444
KAGS,KAGS,Augusta Regional at Bush Field,33.36916667,-81.96444444
KAGS,KAGS,Augusta Regional at Bush Field,33.37,-81.96444444
KAGT,KAGT,Guarani International,-25.45555556,-54.84361111
KAGU,KAGU,Jesus Teran International,21.70555556,-102.3177778
KAGU,KAGU,Jesus Teran International,21.70083333,-102.3180556
KAGU,KAGU,Jesus Teran International,21.70555556,-102.3177778
KAGV,KAGV,Oswaldo Guevara Mujica,9.55222222,-69.23333333
KAGV,KAGV,Oswaldo Guevara Mujica,9.55333333,-69.2375
KAGX,KAGX,Agatti Island Airport,10.83333333,72.2
KAHA,KAHA,Naha AB,26.19194444,127.6477778
KAHB,KAHB,Abha Airport,18.23861111,42.655
KAHB,KAHB,Abha Airport,18.24027778,42.65666667
KAHB,KAHB,Abha Airport,18.24027778,42.65638889
KAHB,KAHB,Abha Airport,18.24027778,42.65666667
KAHB,KAHB,Abha Airport,18.24027778,42.65638889
KAHD,KAHD,Ardmore Airport,34.14694444,-97.12277778
KAHD,KAHD,Ardmore Downtown Executive,34.14694444,-97.12277778
KAHN,KAHN,Athens Municipal,33.94833333,-83.32694444
KAHN,KAHN,Athens/Ben Epps,33.94861111,-83.32638889
KAHN,KAHN,Athens/Ben Epps,33.94861111,-83.32583333
KAHN,KAHN,Athens/Ben Epps,33.94861111,-83.32638889
KAHN,KAHN,Athens/Ben Epps,33.94861111,-83.32583333
KAHO,KAHO,Alghero,40.63055556,8.28888889
KAHO,KAHO,Alghero,40.63222222,8.29083333
KAHO,KAHO,Alghero Fertilia,40.63222222,8.29083333
KAHO,KAHO,Alghero,40.63222222,8.29083333
KAHO,KAHO,Alghero Fertilia,40.63222222,8.29083333
KAHO,KAHO,Alghero,40.63222222,8.29083333
KAHS,KAHS,Ahuas Airport,15.47277778,-84.35138889
KAHS,KAHS,Ahuas Airport,15.47277778,-84.35305556
KAHS,KAHS,Auas,15.47277778,-84.35305556
KAHS,KAHS,Ahuas Airport,15.47277778,-84.35305556
KAHS,KAHS,Auas,15.47277778,-84.35305556
KAHT,KAHT,Amchitka,51.37861111,179.2586111
KAHU,KAHU,Cherif El Idrissi International,35.17972222,-3.83694444
KAHU,KAHU,Cherif El Idrissi International,35.17722222,-3.83944444
KAIA,KAIA,Alliance Municipal,42.05166667,-102.8066667
KAIA,KAIA,Alliance Municipal,42.05333333,-102.8038889
KAIA,KAIA,Alliance Municipal,42.05333333,-102.8036111
KAIA,KAIA,Alliance Municipal,42.05333333,-102.8038889
KAIA,KAIA,Alliance Municipal,42.05333333,-102.8036111
KAIB,KAIB,Anita Bay Airport,56.19,-132.4458333
KAID,KAID,Anderson Municipal-Darlington Field,40.10861111,-85.61305556
KAID,KAID,Anderson Municipal-Darlington Field,40.10861111,-85.61305556
KAIK,KAIK,Aiken Municipal,33.65,-81.68472222
KAIK,KAIK,Aiken Municipal,33.64944444,-81.685
KAIK,KAIK,Aiken Regional,33.64944444,-81.685
KAIN,KAIN,Wainwright Airport,70.63055556,-160.0430556
KAIN,KAIN,Wainwright Airport,70.63805556,-159.9947222
KAIT,KAIT,Aitutaki Airport,-18.85,-159.75
KAIT,KAIT,Aitutaki Airport,-18.83722222,-159.7611111
KAIT,KAIT,Aitutaki Airport,-18.8375,-159.7611111
KAIT,KAIT,Aitutaki Airport,-18.83694444,-159.7608333
KAIT,KAIT,Aitutaki Airport,-18.83722222,-159.7611111
KAIT,KAIT,Aitutaki Airport,-18.83694444,-159.7608333
KAIT,KAIT,Aitutaki Airport,-18.83694444,-159.7611111
KAIY,KAIY,Bader Field,39.36,-74.46
KAIY,KAIY,Bader Field,39.36,-74.45722222
KAIZ,KAIZ,Lee C Fine Memorial,38.09833333,-92.54722222
KAIZ,KAIZ,Lee C Fine Memorial,38.09611111,-92.54944444
KAJA,KAJA,Ajaccio/Campo Dell Oro,41.92416667,8.80305556
KAJA,KAJA,Napoleon Bonaparte,41.92166667,8.80111111
KAJA,KAJA,Ajaccio Napoleon Bonaparte,41.92166667,8.80111111
KAJA,KAJA,Ajaccio Napoleon Bonaparte,41.92388889,8.8025
KAJA,KAJA,Napoleon Bonaparte,41.92166667,8.80111111
KAJA,KAJA,Ajaccio Napoleon Bonaparte,41.92388889,8.8025
KAJF,KAJF,Al Jouf,29.8,40.06666667
KAJF,KAJF,Al Jouf,29.785,40.1
KAJJ,KAJJ,Akjoujt Airport,19.73055556,-14.37444444
KAJJ,KAJJ,Akjoujt Airport,19.72805556,-14.38527778
KAJL,KAJL,Lengpui,23.84055556,92.61972222
KAJN,KAJN,Ouani,-12.12638889,44.42972222
KAJN,KAJN,Ouani,-12.13222222,44.43027778
KAJN,KAJN,Ouani,-12.13111111,44.43055556
KAJN,KAJN,Ouani,-12.13222222,44.43027778
KAJN,KAJN,Ouani,-12.13111111,44.43055556
KAJR,KAJR,Arvidsjaur Airport,65.58611111,19.2825
KAJR,KAJR,Arvidsjaur Airport,65.59027778,19.28194444
KAJR,KAJR,Arvidsjaur Airport,65.59166667,19.2775
KAJU,KAJU,Santa Maria,-10.98388889,-37.07027778
KAJU,KAJU,Santa Maria International,-10.98388889,-37.07027778
KAJY,KAJY,Manu Dayak,16.96416667,7.99305556
KAJY,KAJY,Manu Dayak,16.96611111,8.00027778
KAJY,KAJY,Manu Dayak,16.96611111,8
KAJY,KAJY,Mano Dayak,16.96611111,8
KAJY,KAJY,Manu Dayak,16.96611111,8.00027778
KAJY,KAJY,Mano Dayak,16.96611111,8
KAJY,KAJY,Mano Dayak,16.96083333,8.00916667
KAKB,KAKB,Atka Airport,52.22027778,-174.2069444
KAKB,KAKB,Atka Airport,52.22055556,-174.2061111
KAKC,KAKC,Akron Fulton International,41.0375,-81.46694444
KAKF,KAKF,Kufra,24.2,23.33333333
KAKF,KAKF,Kufra,24.17888889,23.31388889
KAKF,KAKF,Kufra,24.17888889,23.31388889
KAKI,KAKI,Akiak Airport,60.90555556,-161.2233333
KAKI,KAKI,Akiak Airport,60.90277778,-161.2305556
KAKJ,KAKJ,Asahikawa Airport,43.67083333,142.4516667
KAKJ,KAKJ,Asahikawa Airport,43.67083333,142.4513889
KAKJ,KAKJ,Asahikawa Airport,43.67083333,142.4475
KAKK,KAKK,Akhiok Airport,56.945,-154.1666667
KAKK,KAKK,Akhiok Airport,56.93861111,-154.1825
KAKL,KAKL,Auckland International,-37.01111111,174.7991667
KAKL,KAKL,Auckland International,-37.00805556,174.7916667
KAKL,KAKL,Auckland International,-37.01194444,174.7863889
KAKN,KAKN,King Salmon Airport,58.67777778,-156.6516667
KAKN,KAKN,King Salmon Airport,58.67638889,-156.6486111
KAKO,KAKO,Akron Washington County,40.17555556,-103.2222222
KAKO,KAKO,Colorado Plains Regional,40.17555556,-103.2219444
KAKP,KAKP,Anaktuvuk Pass Airport,68.1375,-151.74
KAKP,KAKP,Anaktuvuk Pass Airport,68.13361111,-151.7433333
KAKR,KAKR,Akure Airport,7.25833333,5.30416667
KAKR,KAKR,Akure Airport,7.24666667,5.30111111
KAKS,KAKS,Auki Airport,-8.69777778,160.6808333
KAKS,KAKS,Auki Airport,-8.7025,160.6816667
KAKS,KAKS,Auki Gwaunaru University,-8.7025,160.6816667
KAKS,KAKS,Auki Airport,-8.7025,160.6816667
KAKT,KAKT,Akrotiri Airport,34.59027778,32.9875
KAKT,KAKT,Akrotiri Airport,34.59027778,32.98777778
KAKX,KAKX,Aktyubinsk Airport,50.25,57.21666667
KAKX,KAKX,Aktyubinsk Airport,50.25,57.21666667
KAKY,KAKY,Akyab Airport,20.13027778,92.88027778
KAKY,KAKY,Sittwe Airport,20.13027778,92.88027778
KAKY,KAKY,Sittwe Airport,20.13277778,92.8725
KAKY,KAKY,Sittwe Airport,20.13333333,92.87055556
KAL1,KAL1,Albertville Regional-Thomas J Brumlik Field,34.22916667,-86.25583333
KAL2,KAL2,Shelby County,33.17694444,-86.78277778
KAL2,KAL2,Shelby County,33.17777778,-86.78333333
KAL3,KAL3,Madison County Executive/Tom Sharp Jr. Field,34.86138889,-86.5575
KAL3,KAL3,Madison County Executive/Tom Sharp Jr. Field,34.85944444,-86.5575
KAL3,KAL3,Huntsville Executive Airport Tom Sharp Jr,34.85944444,-86.5575
KAL3,KAL3,Madison County Executive Tom Sharp Jr Field,34.86138889,-86.5575
KAL3,KAL3,Huntsville Executive Airport Tom Sharp Jr,34.85944444,-86.5575
KAL3,KAL3,Huntsville Executive Tom Sharp Jr,34.85944444,-86.5575
KALA,KALA,Alma-Ata Airport,43.35,77.03333333
KALA,KALA,Almaty Airport,43.35,77.03333333
KALA,KALA,Almaty Airport,43.35555556,77.04388889
KALB,KALB,Albany International,42.74583333,-73.80527778
KALB,KALB,Albany International,42.74916667,-73.80194444
KALC,KALC,Alicante Airport,38.2825,-0.55833333
KALC,KALC,Alicante Airport,38.28222222,-0.55805556
KALC,KALC,Alicante Airport,38.28361111,-0.55861111
KALC,KALC,Alicante Elche,38.28222222,-0.55805556
KALC,KALC,Alicante Airport,38.28222222,-0.55805556
KALC,KALC,Alicante Elche,38.28222222,-0.55805556
KALE,KALE,Alpine Casparis Municipal,30.38416667,-103.6830556
KALE,KALE,Alpine Casparis Municipal,30.38416667,-103.6836111
KALF,KALF,Alta Airport,69.97611111,23.38055556
KALF,KALF,Alta Airport,69.97611111,23.37166667
KALF,KALF,Alta Airport,69.9775,23.36472222
KALF,KALF,Alta Airport,69.97611111,23.37166667
KALF,KALF,Alta Airport,69.9775,23.36472222
KALG,KALG,Houari Boumediene,36.69333333,3.21722222
KALG,KALG,Houari Boumediene,36.69111111,3.21527778
KALG,KALG,Houari Boumediene,36.69083333,3.21555556
KALG,KALG,Houari Boumediene,36.6925,3.215
KALG,KALG,Houari Boumediene,36.69111111,3.21527778
KALG,KALG,Houari Boumediene,36.6925,3.215
KALH,KALH,Albany Airport,-34.945,117.8058333
KALH,KALH,Albany Airport,-34.94333333,117.8088889
KALI,KALI,Alice International,27.74083333,-98.02722222
KALI,KALI,Alice International,27.74083333,-98.02694444
KALJ,KALJ,Alexander Bay Airport,-28.56722222,16.53638889
KALJ,KALJ,Alexander Bay Airport,-28.575,16.53333333
KALK,KALK,Asela Airport,7.58333333,39.06666667
KALM,KALM,Alamogordo White Sands Regional,32.83972222,-105.99
KALM,KALM,Alamogordo White Sands Regional,32.84,-105.9905556
KALM,KALM,Alamogordo White Sands Regional,32.84138889,-105.9888889
KALM,KALM,Alamogordo White Sands Regional,32.83944444,-105.9911111
KALM,KALM,Alamogordo White Sands Regional,32.84,-105.9905556
KALM,KALM,Alamogordo White Sands Regional,32.83944444,-105.9911111
KALN,KALN,St. Louis Regional,38.89166667,-90.04833333
KALN,KALN,St. Louis Regional,38.89,-90.04611111
KALO,KALO,Waterloo Regional,42.55611111,-92.39972222
KALO,KALO,Waterloo Regional,42.55694444,-92.40027778
KALP,KALP,Neirab,36.18083333,37.22666667
KALP,KALP,Aleppo International,36.18055556,37.22444444
KALQ,KALQ,Alegrete Airport,-29.79972222,-55.76333333
KALR,KALR,Alexandra Airport,-45.21388889,169.3694444
KALR,KALR,Alexandra Airport,-45.21138889,169.3716667
KALS,KALS,Alamosa Municipal,37.43666667,-105.8666667
KALS,KALS,San Luis Valley Regional/Bergman Field,37.435,-105.8666667
KALS,KALS,San Luis Valley Regional/Bergman Field,37.435,-105.8677778
KALS,KALS,San Luis Valley Regional/Bergman Field,37.435,-105.8666667
KALS,KALS,San Luis Valley Regional/Bergman Field,37.435,-105.8677778
KALT,KALT,Alenquer Airport,-1.94055556,-54.74027778
KALU,KALU,Alula Airport,11.98333333,50.78333333
KALW,KALW,Walla Walla Regional,46.09472222,-118.2911111
KALW,KALW,Walla Walla Regional,46.09472222,-118.2888889
KALW,KALW,Walla Walla Regional,46.09527778,-118.2858333
KALW,KALW,Walla Walla Regional,46.09472222,-118.2888889
KALW,KALW,Walla Walla Regional,46.09527778,-118.2858333
KALW,KALW,Walla Walla Regional,46.0925,-118.2841667
KALX,KALX,Thomas C. Russell Field,32.91666667,-85.96666667
KALX,KALX,Thomas C. Russell Field,32.91472222,-85.96305556
KALY,KALY,Alexandria International,31.18777778,29.94805556
KALY,KALY,Alexandria International,31.18361111,29.94861111
KALZ,KALZ,Alitak Seaplane Base,56.89583333,-154.2458333
KAMA,KAMA,Amarillo International,35.22722222,-101.7219444
KAMA,KAMA,Rick Husband Amarillo International,35.22722222,-101.7219444
KAMA,KAMA,Rick Husband Amarillo International,35.21944444,-101.7058333
KAMD,KAMD,Ahmedabad Airport,23.06638889,72.62416667
KAMD,KAMD,Ahmedabad Airport,23.07722222,72.63444444
KAMD,KAMD,Ahmedabad International,23.07722222,72.63444444
KAMF,KAMF,Ama Airport,-4.10166667,141.6697222
KAMF,KAMF,Ama Airport,-4.10055556,141.6697222
KAMG,KAMG,Amboin Airport,-4.6,143.5
KAMH,KAMH,Arba Minch Airport,6.03611111,37.57694444
KAMH,KAMH,Arba Minch Airport,6.03944444,37.59083333
KAMI,KAMI,Rembiga,-8.56,116.0969444
KAMI,KAMI,Selaparang,-8.56,116.0969444
KAMI,KAMI,Selaparang,-8.56083333,116.0947222
KAMI,KAMI,Selaparang,-8.56055556,116.0947222
KAMK,KAMK,Animas Air Park,37.20388889,-107.8686111
KAMK,KAMK,Animas Air Park,37.20305556,-107.8691667
KAML,KAML,Puerto Armuelles Airport,8.26555556,-82.86555556
KAML,KAML,Puerto Armuelles Airport,8.2675,-82.86472222
KAMM,KAMM,Amman Airport,31.7225,35.99333333
KAMM,KAMM,Queen Alia International,31.7225,35.99333333
KAMM,KAMM,Queen Alia International,31.72333333,35.99416667
KAMN,KAMN,Gratiot Community,43.32083333,-84.68666667
KAMN,KAMN,Gratiot Community,43.32222222,-84.68805556
KAMO,KAMO,Mao Airport,14.14722222,15.31444444
KAMO,KAMO,Mao Airport,14.14638889,15.31527778
KAMP,KAMP,Ampanihy Airport,-24.69944444,44.73305556
KAMP,KAMP,Ampanihy Airport,-24.69944444,44.73277778
KAMQ,KAMQ,Pattimura,-3.71027778,128.0897222
KAMS,KAMS,Schiphol,52.30833333,4.76805556
KAMS,KAMS,Schiphol,52.30861111,4.76388889
KAMW,KAMW,Ames Municipal,41.99416667,-93.61833333
KAMW,KAMW,Ames Municipal,41.99194444,-93.62194444
KAMX,KAMX,Ammaroo Station,-21.74,135.24
KAMY,KAMY,Ambatomainty Airport,-17.68555556,45.62527778
KAMY,KAMY,Ambatomainty Airport,-17.68611111,45.625
KANA,KANA,Anaheim-Disneyland HP,33.81666667,-117.9333333
KANB,KANB,Anniston/Calhoun County,33.59027778,-85.85583333
KANB,KANB,Anniston Metro,33.58805556,-85.85805556
KANB,KANB,Anniston Regional,33.58805556,-85.85805556
KANB,KANB,Anniston Metro,33.58805556,-85.85805556
KANB,KANB,Anniston Regional,33.58805556,-85.85805556
KANC,KANC,Anchorage International,61.16916667,-149.9852778
KANC,KANC,Ted Stevens Anchorage International,61.17444444,-149.9961111
KANC,KANC,Ted Stevens Anchorage International,61.17444444,-149.9963889
KANC,KANC,Ted Stevens Anchorage International,61.17416667,-149.9980556
KANC,KANC,Ted Stevens Anchorage International,61.17444444,-149.9963889
KANC,KANC,Ted Stevens Anchorage International,61.17416667,-149.9980556
KAND,KAND,Anderson Regional,34.49361111,-82.71
KAND,KAND,Anderson Regional,34.49444444,-82.70944444
KANE,KANE,Avrille,47.49722222,-0.57277778
KANE,KANE,Angers Marce,47.56027778,-0.31277778
KANE,KANE,Angers Marce,47.56,-0.31277778
KANF,KANF,Cerro Moreno International,-23.43944444,-70.44277778
KANF,KANF,Cerro Moreno International,-23.44444444,-70.445
KANF,KANF,Andres Sabella International,-23.44444444,-70.445
KANF,KANF,Cerro Moreno International,-23.44444444,-70.445
KANF,KANF,Andres Sabella International,-23.44444444,-70.445
KANG,KANG,Brie-Champniers,45.72944444,0.21972222
KANG,KANG,Brie-Champniers,45.72944444,0.21833333
KANG,KANG,Angouleme Airport,45.72944444,0.21833333
KANG,KANG,Angouleme Brie Champniers,45.72944444,0.21833333
KANG,KANG,Brie Champniers,45.72944444,0.21833333
KANG,KANG,Angouleme Brie Champniers,45.72944444,0.21833333
KANI,KANI,Aniak Airport,61.58166667,-159.5430556
KANK,KANK,Etimesgut,39.95166667,32.68805556
KANK,KANK,Etimesgut,39.95027778,32.6875
KANK,KANK,Etimesgut,39.95194444,32.68611111
KANK,KANK,Etimesgut,39.95027778,32.6875
KANK,KANK,Etimesgut,39.95194444,32.68611111
KANM,KANM,Antsirabato,-15,50.32138889
KANM,KANM,Antsirabato,-14.99944444,50.32027778
KANN,KANN,Annette Island,55.03694444,-131.5705556
KANN,KANN,Annette Island,55.0425,-131.5722222
KANN,KANN,Annette Island,55.04222222,-131.5708333
KANN,KANN,Annette Island,55.0425,-131.5722222
KANN,KANN,Annette Island,55.04222222,-131.5708333
KANO,KANO,Angoche Airport,-16.17777778,39.93694444
KANO,KANO,Angoche Airport,-16.1825,39.945
KANO,KANO,Angoche Airport,-16.1825,39.94527778
KANO,KANO,Angoche Airport,-16.1825,39.945
KANO,KANO,Angoche Airport,-16.1825,39.94527778
KANP,KANP,Lee,38.94277778,-76.56888889
KANP,KANP,Lee,38.94277778,-76.56833333
KANR,KANR,Antwerp-Brussels North,51.19,4.46
KANR,KANR,Deurne,51.18944444,4.46027778
KANR,KANR,Deurne,51.19,4.46305556
KANS,KANS,Andahuaylas Airport,-13.70861111,-73.35111111
KANS,KANS,Andahuaylas Airport,-13.70888889,-73.35138889
KANS,KANS,Andahuaylas Airport,-13.70888889,-73.35166667
KANS,KANS,Andahuaylas Airport,-13.70888889,-73.35138889
KANU,KANU,Antigua,17.10833333,-61.76388889
KANU,KANU,V C Bird International,17.1375,-61.79
KANU,KANU,V C Bird International,17.13666667,-61.79277778
KANU,KANU,V C Bird International,17.13611111,-61.79388889
KANU,KANU,V C Bird International,17.13666667,-61.79277778
KANU,KANU,V C Bird International,17.13611111,-61.79388889
KANV,KANV,Anvik Airport,62.64777778,-160.1888889
KANV,KANV,Anvik Airport,62.64722222,-160.19
KANX,KANX,Andoya,69.29305556,16.14166667
KANX,KANX,Andoya,69.2925,16.14416667
KAOH,KAOH,Lima Allen County,40.70833333,-84.02666667
KAOH,KAOH,Lima Allen County,40.70833333,-84.02694444
KAOI,KAOI,Ancona/Falconara,43.6175,13.36416667
KAOI,KAOI,Falconara,43.61638889,13.36222222
KAOI,KAOI,Ancona Falconara,43.61638889,13.36222222
KAOI,KAOI,Falconara,43.61638889,13.36222222
KAOI,KAOI,Ancona Falconara,43.61638889,13.36222222
KAOJ,KAOJ,Aomori Airport,40.73472222,140.6897222
KAOJ,KAOJ,Aomori Airport,40.73333333,140.6886111
KAOK,KAOK,Karpathos Airport,35.42388889,27.14722222
KAOK,KAOK,Karpathos Airport,35.42083333,27.14555556
KAOK,KAOK,Karpathos Airport,35.42111111,27.14583333
KAOK,KAOK,Karpathos Airport,35.42083333,27.14555556
KAOK,KAOK,Karpathos Airport,35.42111111,27.14583333
KAOL,KAOL,Paso de Los Libres Airport,-29.69,-57.14861111
KAOL,KAOL,Paso de Los Libres Airport,-29.68944444,-57.15194444
KAOO,KAOO,Altoona-Blair County,40.29722222,-78.32
KAOO,KAOO,Altoona-Blair County,40.29638889,-78.32
KAOR,KAOR,Sultan Abdul Halim,6.19111111,100.4038889
KAOR,KAOR,Sultan Abdul Halim,6.18972222,100.3983333
KAOS,KAOS,Amook Bay Airport,57.45472222,-153.8130556
KAPA,KAPA,Arapahoe County,39.57277778,-104.8477778
KAPA,KAPA,Centennial,39.57277778,-104.8477778
KAPA,KAPA,Centennial,39.57027778,-104.8494444
KAPA,KAPA,Centennial,39.57,-104.8494444
KAPA,KAPA,Centennial,39.57,-104.8491667
KAPB,KAPB,Apolo Airport,-14.73666667,-68.41305556
KAPB,KAPB,Apolo Airport,-14.74027778,-68.41111111
KAPB,KAPB,Apolo Airport,-14.74,-68.4075
KAPB,KAPB,Apolo Airport,-14.73888889,-68.41111111
KAPB,KAPB,Apolo Airport,-14.74027778,-68.41111111
KAPB,KAPB,Apolo Airport,-14.73888889,-68.41111111
KAPB,KAPB,Apolo Airport,-14.73888889,-68.41138889
KAPC,KAPC,Napa County,38.21222222,-122.28
KAPC,KAPC,Napa County,38.21305556,-122.2805556
KAPC,KAPC,Napa County,38.21361111,-122.2802778
KAPC,KAPC,Napa County,38.21305556,-122.2805556
KAPE,KAPE,San Juan Aposento Airport,-15.35,-75.16666667
KAPF,KAPF,Naples Municipal,26.15277778,-81.77527778
KAPF,KAPF,Naples Municipal,26.15222222,-81.77583333
KAPF,KAPF,Naples Municipal,26.1525,-81.77555556
KAPF,KAPF,Naples Municipal,26.15222222,-81.77583333
KAPF,KAPF,Naples Municipal,26.1525,-81.77555556
KAPG,KAPG,Phillips AAF,39.46611111,-76.16972222
KAPG,KAPG,Phillips AAF,39.46611111,-76.16888889
KAPG,KAPG,Phillips AAF,39.46555556,-76.16833333
KAPK,KAPK,Apataki Airport,-15.56666667,-146.4166667
KAPK,KAPK,Apataki Airport,-15.57527778,-146.4130556
KAPL,KAPL,Nampula Airport,-15.10166667,39.28722222
KAPL,KAPL,Nampula Airport,-15.10555556,39.28166667
KAPN,KAPN,Phelps/Collins,45.08166667,-83.55583333
KAPN,KAPN,Alpena County Regional,45.07805556,-83.56027778
KAPO,KAPO,Apartado Airport,7.03333333,-77.2
KAPR,KAPR,April River Airport,-4.67361111,142.5377778
KAPR,KAPR,April River Airport,-4.67638889,142.54
KAPT,KAPT,Marion County Brown Field,35.06055556,-85.58527778
KAPV,KAPV,Calf Apple Valley,34.52638889,-117.2127778
KAPV,KAPV,Apple Valley Airport,34.52638889,-117.2127778
KAPV,KAPV,Apple Valley Airport,34.57527778,-117.1861111
KAPW,KAPW,Faleolo,-13.83333333,-172
KAPW,KAPW,Faleolo International,-13.82833333,-172.0119444
KAPW,KAPW,Faleolo International,-13.83,-172.0083333
KAQI,KAQI,Qaisumah Airport,28.33527778,46.125
KAQI,KAQI,Hafr Al Batin,28.33527778,46.125
KAQI,KAQI,Al Qaisumah,28.33527778,46.125
KAQI,KAQI,Hafr Al Batin,28.33527778,46.125
KAQI,KAQI,Qaisumah Airport,28.33527778,46.125
KAQI,KAQI,Hafr Al Batin,28.33527778,46.125
KAQI,KAQI,Hafr Al Batin,28.33611111,46.12694444
KAQJ,KAQJ,King Hussein International,29.6125,35.01944444
KAQJ,KAQJ,Aqaba King Hussein International,29.61111111,35.01777778
KAQJ,KAQJ,King Hussein International,29.61111111,35.01777778
KAQJ,KAQJ,Aqaba King Hussein International,29.61111111,35.01777778
KAQJ,KAQJ,King Hussein International,29.61111111,35.01777778
KAQP,KAQP,Rodriguez Ballon International,-16.33777778,-71.555
KAQP,KAQP,Rodriguez Ballon International,-16.34111111,-71.58305556
KAQP,KAQP,Rodriguez Ballon International,-16.34055556,-71.57083333
KAQP,KAQP,Rodriguez Ballon International,-16.34111111,-71.58305556
KAQP,KAQP,Rodriguez Ballon International,-16.34055556,-71.57083333
KAQS,KAQS,Saqani Airport,-16.75,179.35
KAQY,KAQY,Girdwood Airport,60.96666667,-149.1236111
KAQY,KAQY,Girdwood Airport,60.96611111,-149.1258333
KAQY,KAQY,Girdwood Airport,60.96888889,-149.1194444
KAQY,KAQY,Girdwood Airport,60.96611111,-149.1258333
KAQY,KAQY,Girdwood Airport,60.96888889,-149.1194444
KAR1,KAR1,Russellville Regional,35.26472222,-93.09388889
KAR1,KAR1,Russellville Regional,35.25916667,-93.09333333
KAR1,KAR1,Russellville Regional,35.25916667,-93.0925
KAR2,KAR2,Dennis F Cantrell Field,35.08083333,-92.425
KAR2,KAR2,Dennis F Cantrell Field,35.08111111,-92.42444444
KAR2,KAR2,Dennis F Cantrell Field,35.08083333,-92.425
KAR2,KAR2,Dennis F Cantrell Field,35.08111111,-92.42444444
KARA,KARA,Acadiana Reg,30.03777778,-91.88388889
KARA,KARA,Acadiana Regional,30.0375,-91.88388889
KARA,KARA,Acadiana Regional,30.03777778,-91.88388889
KARB,KARB,Ann Arbor Municipal,42.22277778,-83.74444444
KARB,KARB,Ann Arbor Municipal,42.22305556,-83.74555556
KARC,KARC,Wien Arctic Village,68.1375,-145.5244444
KARC,KARC,Arctic Village Airport,68.11472222,-145.5794444
KARD,KARD,Arcadia Municipal,-8.25,124.75
KARE,KARE,Arecibo Airport,18.45,-66.67583333
KARE,KARE,Antonio/Nery/Juarbe Pol,18.45027778,-66.67583333
KARE,KARE,Antonio/Nery/Juarbe Pol,18.45,-66.67527778
KARE,KARE,Antonio/Nery/Juarbe Pol,18.45083333,-66.67555556
KARE,KARE,Antonio/Nery/Juarbe Pol,18.45,-66.67527778
KARE,KARE,Antonio/Nery/Juarbe Pol,18.45083333,-66.67555556
KARG,KARG,Walnut Ridge Regional,36.125,-90.92638889
KARG,KARG,Walnut Ridge Regional,36.12472222,-90.925
KARH,KARH,Arkhangelsk Airport,64.56666667,40.53333333
KARH,KARH,Talagi,64.56666667,40.53333333
KARH,KARH,Talagi,64.60027778,40.71666667
KARH,KARH,Arkhangelsk Airport,64.60027778,40.71666667
KARH,KARH,Talagi,64.60027778,40.71666667
KARI,KARI,Chacalluta,-18.33305556,-70.33805556
KARI,KARI,Chacalluta,-18.34861111,-70.33861111
KARK,KARK,Arusha Airport,-3.36416667,36.62472222
KARK,KARK,Arusha Airport,-3.36666667,36.62555556
KARM,KARM,Armidale Airport,-30.52833333,151.6233333
KARM,KARM,Armidale Airport,-30.52805556,151.6172222
KARN,KARN,Arlanda,59.66194444,17.93388889
KARN,KARN,Arlanda,59.65194444,17.91861111
KARP,KARP,Aragip Airport,-9.87055556,149.4836111
KARP,KARP,Aragip Airport,-9.87083333,149.4841667
KARP,KARP,Aragip Airport,-9.87333333,149.4830556
KARQ,KARQ,Troncal,7.02111111,-71.38888889
KARQ,KARQ,Arauquita Airport,7.02111111,-71.38888889
KARQ,KARQ,Troncal,7.02111111,-71.38888889
KARQ,KARQ,Arauquita Airport,7.02111111,-71.38888889
KARS,KARS,Aragarcas Airport,-15.9,-52.23333333
KARS,KARS,Aragarcas Airport,-15.89944444,-52.24111111
KART,KART,Watertown International,43.99083333,-76.02138889
KART,KART,Watertown International,43.99194444,-76.02055556
KART,KART,Watertown International,43.99194444,-76.01944444
KART,KART,Watertown International,43.99194444,-76.02055556
KART,KART,Watertown International,43.99194444,-76.01944444
KARU,KARU,Aracatuba Airport,-21.14361111,-50.42611111
KARU,KARU,Aracatuba Airport,-21.14138889,-50.42472222
KARU,KARU,Aracatuba Airport,-21.14138889,-50.42444444
KARU,KARU,Aracatuba Airport,-21.14138889,-50.42472222
KARU,KARU,Aracatuba Airport,-21.14138889,-50.42444444
KARV,KARV,Lakeland/Noble F. Lee Memorial Field,45.92805556,-89.73083333
KARW,KARW,Arad Airport,46.18333333,21.26666667
KARW,KARW,Arad Airport,46.17666667,21.26194444
KARW,KARW,Arad International,46.17666667,21.26194444
KARW,KARW,Arad Airport,46.17666667,21.26194444
KARW,KARW,Arad International,46.17666667,21.26194444
KARX,KARX,Asbury Park/Monmouth County,40.18333333,-74.11666667
KARY,KARY,Ararat Airport,-37.31194444,142.9905556
KARY,KARY,Ararat Airport,-37.30944444,142.9886111
KARZ,KARZ,N'zeto North,-7.2225,12.86861111
KARZ,KARZ,N'zeto Airport,-7.25944444,12.86277778
KARZ,KARZ,N'zeto Airport,-7.25888889,12.8625
KASA,KASA,Assab International,13.07,42.63833333
KASA,KASA,Assab International,13.07333333,42.63694444
KASA,KASA,Assab International,13.07166667,42.645
KASB,KASB,Ashkhabad Airport,37.98166667,58.36083333
KASB,KASB,Ashgabat Airport,37.98166667,58.36083333
KASB,KASB,Ashgabat Airport,37.98694444,58.36111111
KASC,KASC,Ascension Airport,-15.91666667,-63.15
KASD,KASD,Andros Town Airport,24.69777778,-77.79611111
KASD,KASD,Fresh Creek,24.69805556,-77.79555556
KASE,KASE,Aspen Pitkin County Sardy Field,39.22416667,-106.8688889
KASE,KASE,Aspen Pitkin County Sardy Field,39.22305556,-106.8688889
KASE,KASE,Aspen Pitkin County Sardy Field,39.22194444,-106.8683333
KASE,KASE,Aspen Pitkin County Sardy Field,39.22305556,-106.8688889
KASE,KASE,Aspen Pitkin County Sardy Field,39.22194444,-106.8683333
KASG,KASG,Ashburton Airport,-43.905,171.7966667
KASG,KASG,Ashburton Airport,-43.90277778,171.7997222
KASH,KASH,Nashua Airport,42.77888889,-71.50944444
KASH,KASH,Boire Field,42.77888889,-71.50944444
KASH,KASH,Boire Field,42.78166667,-71.51472222
KASH,KASH,Boire Field,42.7825,-71.51416667
KASH,KASH,Boire Field,42.78166667,-71.51472222
KASH,KASH,Boire Field,42.7825,-71.51416667
KASI,KASI,Ascension Aux Af,-7.97027778,-14.39361111
KASI,KASI,Ascension Aux Af,-7.96972222,-14.39361111
KASJ,KASJ,Amami,28.41694444,129.6975
KASJ,KASJ,Amami,28.43055556,129.7125
KASK,KASK,Yamoussoukro Airport,6.90555556,-5.36416667
KASK,KASK,Yamoussoukro Airport,6.90305556,-5.36611111
KASL,KASL,Harrison County,32.52166667,-94.30805556
KASL,KASL,Harrison County,32.52055556,-94.30777778
KASM,KASM,Yohannes IV,15.29111111,38.91027778
KASM,KASM,Asmara International,15.29333333,38.90888889
KASM,KASM,Asmara International,15.29194444,38.91111111
KASM,KASM,Asmara International,15.28777778,38.90805556
KASN,KASN,Talladega Municipal,33.56972222,-86.05083333
KASN,KASN,Talladega Municipal,33.56944444,-86.05111111
KASO,KASO,Asosa Airport,10.04722222,34.53666667
KASO,KASO,Asosa Airport,10.02055556,34.59888889
KASO,KASO,Asosa Airport,10.02055556,34.58222222
KASO,KASO,Asosa Hidase,10.02055556,34.58222222
KASO,KASO,Asosa Airport,10.02055556,34.59888889
KASO,KASO,Asosa Hidase,10.02055556,34.58222222
KASP,KASP,Alice Springs Airport,-23.80333333,133.8841667
KASP,KASP,Alice Springs Airport,-23.80833333,133.9008333
KASP,KASP,Alice Springs Airport,-23.80444444,133.8952778
KASP,KASP,Alice Springs Airport,-23.80833333,133.9008333
KASP,KASP,Alice Springs Airport,-23.80444444,133.8952778
KASQ,KASQ,Austin Airport,39.46888889,-117.1961111
KASQ,KASQ,Austin Airport,39.46805556,-117.1952778
KASQ,KASQ,Austin Airport,39.46805556,-117.1975
KASQ,KASQ,Austin Airport,39.46805556,-117.1952778
KASQ,KASQ,Austin Airport,39.46805556,-117.1975
KASR,KASR,Kayseri Airport,38.70416667,35.50972222
KASR,KASR,Erkilet,38.77027778,35.49555556
KASR,KASR,Kayseri Airport,38.77027778,35.49555556
KASR,KASR,Erkilet,38.77027778,35.49555556
KASR,KASR,Kayseri Airport,38.77027778,35.49555556
KAST,KAST,Astoria Regional,46.15972222,-123.88
KAST,KAST,Astoria Regional,46.15805556,-123.8786111
KASU,KASU,Silvio Pettirossi International,-25.23916667,-57.51916667
KASU,KASU,Silvio Pettirossi International,-25.24111111,-57.51694444
KASU,KASU,Silvio Pettirossi International,-25.23972222,-57.51916667
KASW,KASW,Aswan International,23.965,32.82166667
KASW,KASW,Aswan International,23.96444444,32.82
KASX,KASX,John F Kennedy Memorial,46.54861111,-90.91861111
KASX,KASX,John F Kennedy Memorial,46.54861111,-90.91888889
KASY,KASY,Ashley Municipal,46.02388889,-99.35277778
KASY,KASY,Ashley Municipal,46.02388889,-99.3525
KASY,KASY,Ashley Municipal,46.02472222,-99.35166667
KASY,KASY,Ashley Municipal,46.02305556,-99.35277778
KASY,KASY,Ashley Municipal,46.02388889,-99.3525
KASY,KASY,Ashley Municipal,46.02305556,-99.35277778
KATA,KATA,Anta Huaraz,-9.34722222,-77.6
KATB,KATB,Atbara Airport,17.70972222,34.05722222
KATC,KATC,Arthur's Town Airport,24.62944444,-75.67388889
KATE,KATE,Antlers Municipal,34.19277778,-95.64972222
KATE,KATE,Antlers Municipal,34.1925,-95.64972222
KATE,KATE,Antlers Municipal,34.19361111,-95.65
KATH,KATH,Eleftherios Venizelos International,37.93666667,23.94444444
KATI,KATI,Artigas International,-30.4,-56.50833333
KATI,KATI,Artigas International,-30.40083333,-56.50777778
KATK,KATK,Atqasuk Edward Burnell Sr. Memorial,70.4675,-157.4519444
KATK,KATK,Atqasuk Edward Burnell Sr. Memorial,70.46722222,-157.4358333
KATK,KATK,Atqasuk Edward Burnell Sr. Memorial,70.46722222,-157.4355556
KATK,KATK,Atqasuk Edward Burnell Sr. Memorial,70.46722222,-157.4358333
KATK,KATK,Atqasuk Edward Burnell Sr. Memorial,70.46722222,-157.4355556
KATL,KATL,Atlanta Municipal,33.64083333,-84.42722222
KATL,KATL,William B. Hartsfield Atlanta International,33.64083333,-84.42722222
KATL,KATL,Hartsfield-Jackson Atlanta International,33.64083333,-84.42722222
KATL,KATL,Hartsfield-Jackson Atlanta International,33.63666667,-84.42805556
KATL,KATL,Hartsfield-Jackson Atlanta International,33.63666667,-84.42777778
KATL,KATL,Hartsfield-Jackson Atlanta International,33.63666667,-84.42805556
KATL,KATL,Hartsfield-Jackson Atlanta International,33.63666667,-84.42777778
KATM,KATM,Altamira Airport,-3.25333333,-52.25305556
KATM,KATM,Altamira Airport,-3.25388889,-52.25388889
KATM,KATM,Altamira Airport,-3.25305556,-52.25388889
KATM,KATM,Altamira Airport,-3.25388889,-52.25388889
KATM,KATM,Altamira Airport,-3.25305556,-52.25388889
KATN,KATN,Namatanai Airport,-3.67138889,152.4363889
KATN,KATN,Namatanai Airport,-3.66944444,152.4380556
KATN,KATN,Namatanai Airport,-3.66972222,152.4380556
KATN,KATN,Namatanai Airport,-3.66944444,152.4380556
KATN,KATN,Namatanai Airport,-3.66972222,152.4380556
KATO,KATO,Ohio University Snyder Field,39.21083333,-82.23166667
KATO,KATO,Ohio University Snyder Field,39.21194444,-82.22916667
KATO,KATO,Ohio University,39.21194444,-82.22916667
KATO,KATO,Ohio University Snyder Field,39.21194444,-82.22916667
KATO,KATO,Ohio University,39.21194444,-82.22916667
KATP,KATP,Aitape Airport,-3.1425,142.3466667
KATQ,KATQ,Amritsar Airport,31.70694444,74.79722222
KATQ,KATQ,Amritsar Airport,31.71138889,74.79638889
KATQ,KATQ,Amritsar International,31.71138889,74.79638889
KATQ,KATQ,Amritsar Airport,31.71138889,74.79638889
KATQ,KATQ,Amritsar International,31.71138889,74.79638889
KATR,KATR,Atar Airport,20.49944444,-13.04638889
KATR,KATR,Atar Airport,20.50666667,-13.04305556
KATS,KATS,Artesia Municipal,32.84833333,-104.4669444
KATS,KATS,Artesia Municipal,32.8525,-104.4677778
KATS,KATS,Artesia Municipal,32.85166667,-104.4672222
KATS,KATS,Artesia Municipal,32.85194444,-104.4675
KATS,KATS,Artesia Municipal,32.8525,-104.4677778
KATS,KATS,Artesia Municipal,32.85194444,-104.4675
KATT,KATT,Atmautluak Airport,60.8675,-162.2708333
KATT,KATT,Atmautluak Airport,60.86722222,-162.2733333
KATT,KATT,Atmautluak Airport,60.86777778,-162.2741667
KATT,KATT,Atmautluak Airport,60.86722222,-162.2733333
KATT,KATT,Atmautluak Airport,60.86777778,-162.2741667
KATU,KATU,Casco Cove,52.82583333,173.1727778
KATU,KATU,Casco Cove CGS,52.8325,173.1755556
KATV,KATV,Ati Airport,13.24222222,18.3075
KATV,KATV,Ati Airport,13.23972222,18.31333333
KATV,KATV,Ati Airport,13.23972222,18.31555556
KATV,KATV,Ati Airport,13.23972222,18.31333333
KATV,KATV,Ati Airport,13.23972222,18.31555556
KATW,KATW,Outagamie County Regional,44.25777778,-88.52
KATW,KATW,Outagamie County Regional,44.25805556,-88.51916667
KATW,KATW,Appleton International,44.25805556,-88.51916667
KATW,KATW,Outagamie County Regional,44.25805556,-88.51916667
KATW,KATW,Appleton International,44.25805556,-88.51916667
KATY,KATY,Watertown Municipal,44.90888889,-97.15416667
KATY,KATY,Watertown Regional,44.90888889,-97.15416667
KATY,KATY,Watertown Regional,44.91388889,-97.15472222
KATZ,KATZ,Assiut Airport,27.04638889,31.07861111
KAUA,KAUA,Reina Beatrix International,12.50222222,-70.01388889
KAUA,KAUA,Reina Beatrix International,12.50222222,-70.01388889
KAUA,KAUA,Reina Beatrix International,12.50138889,-70.01555556
KAUC,KAUC,Santiago Perez,7.07027778,-70.74055556
KAUC,KAUC,Santiago Perez,7.06888889,-70.73694444
KAUD,KAUD,Augustus Downs Airport,-18.50694444,139.8816667
KAUD,KAUD,Augustus Downs Airport,-18.51555556,139.8786111
KAUG,KAUG,Augusta,44.31805556,-69.79666667
KAUG,KAUG,Augusta State,44.32055556,-69.79722222
KAUH,KAUH,Abu Dhabi International,24.43305556,54.64888889
KAUH,KAUH,Abu Dhabi International,24.44333333,54.65277778
KAUK,KAUK,Alakanuk New,62.68916667,-164.6108333
KAUK,KAUK,Alakanuk Airport,62.68,-164.66
KAUK,KAUK,Alakanuk Airport,62.68305556,-164.7222222
KAUK,KAUK,Alakanuk Airport,62.68,-164.66
KAUK,KAUK,Alakanuk Airport,62.68305556,-164.7222222
KAUM,KAUM,Austin Municipal,43.66444444,-92.93388889
KAUM,KAUM,Austin Municipal,43.66277778,-92.93305556
KAUN,KAUN,Auburn Municipal,38.95277778,-121.0819444
KAUN,KAUN,Auburn Municipal,38.95472222,-121.0816667
KAUO,KAUO,Auburn-Opelika,32.61527778,-85.43194444
KAUO,KAUO,Auburn University Regional,32.615,-85.43388889
KAUP,KAUP,Aguan Papua N.G.,-9.91666667,149.3333333
KAUQ,KAUQ,Hiva Oa/Atuona,-9.76666667,-139.0166667
KAUQ,KAUQ,Hiva Oa/Atuona,-9.76888889,-139.0113889
KAUQ,KAUQ,Hiva Oa/Atuona,-9.76611111,-139.01
KAUQ,KAUQ,Hiva Oa/Atuona,-9.76583333,-139.0097222
KAUQ,KAUQ,Hiva Oa/Atuona,-9.76888889,-139.0113889
KAUQ,KAUQ,Hiva Oa/Atuona,-9.76583333,-139.0097222
KAUR,KAUR,Aurillac Airport,44.8975,2.41805556
KAUR,KAUR,Aurillac Airport,44.89111111,2.42194444
KBSM,KBSM,Austin - Bergstrom International,30.19444444,-97.67
KAUS,KAUS,Austin - Bergstrom International,30.19444444,-97.67
KAUW,KAUW,Wausau Downtown,44.92333333,-89.62305556
KAUW,KAUW,Wausau Downtown,44.92638889,-89.62694444
KAUW,KAUW,Wausau Downtown,44.92638889,-89.62666667
KAUW,KAUW,Wausau Downtown,44.92638889,-89.62694444
KAUW,KAUW,Wausau Downtown,44.92638889,-89.62666667
KAUX,KAUX,Araguaina Airport,-7.2,-48.2
KAUX,KAUX,Araguaina Airport,-7.22777778,-48.24055556
KAUY,KAUY,Anatom,-20.25333333,169.7613889
KAUY,KAUY,Aneityum Airport,-20.24916667,169.7708333
KAUY,KAUY,Aneityum Airport,-20.24944444,169.7708333
KAUY,KAUY,Aneityum Airport,-20.24916667,169.7708333
KAUY,KAUY,Aneityum Airport,-20.24944444,169.7708333
KAUZ,KAUZ,Aurora Municipal,41.77083333,-88.47277778
KAUZ,KAUZ,Aurora Municipal,41.77194444,-88.47555556
KAVB,KAVB,Aviano AFB,46.03194444,12.59722222
KAVB,KAVB,Aviano AB,46.03,12.59888889
KAVB,KAVB,Aviano AB,46.03111111,12.59638889
KAVB,KAVB,Aviano AB,46.03,12.59888889
KAVB,KAVB,Aviano AB,46.03111111,12.59638889
KAVI,KAVI,Maximo Gomez,22.02638889,-78.79055556
KAVI,KAVI,Maximo Gomez,22.02694444,-78.78972222
KAVL,KAVL,Asheville Regional,35.435,-82.54111111
KAVL,KAVL,Asheville Regional,35.43611111,-82.54194444
KAVL,KAVL,Asheville Regional,35.43444444,-82.54277778
KAVL,KAVL,Asheville Regional,35.43611111,-82.54194444
KAVL,KAVL,Asheville Regional,35.43444444,-82.54277778
KAVN,KAVN,Caumont,43.90722222,4.90194444
KAVN,KAVN,Caumont,43.90666667,4.90194444
KAVN,KAVN,Avignon Caumont,43.90666667,4.90194444
KAVN,KAVN,Caumont,43.90722222,4.90194444
KAVN,KAVN,Avignon Caumont,43.90666667,4.90194444
KAVN,KAVN,Avignon Caumont,43.90722222,4.90194444
KAVO,KAVO,Avon Park Municipal,27.5925,-81.52694444
KAVO,KAVO,Avon Park Executive,27.59138889,-81.52888889
KAVP,KAVP,Wilkes Barre Scranton International,41.33916667,-75.72583333
KAVP,KAVP,Wilkes Barre Scranton International,41.33861111,-75.72333333
KAVP,KAVP,Wilkes Barre Scranton International,41.33833333,-75.72333333
KAVP,KAVP,Wilkes Barre Scranton International,41.33861111,-75.72333333
KAVP,KAVP,Wilkes Barre Scranton International,41.33833333,-75.72333333
KAVV,KAVV,Avalon Airport,-38.04083333,144.4680556
KAVV,KAVV,Avalon Airport,-38.03944444,144.4694444
KAVW,KAVW,Avra Valley,32.40916667,-111.2180556
KAVW,KAVW,Marana Regional,32.40944444,-111.2183333
KAVX,KAVX,Catalina,33.405,-118.4158333
KAWA,KAWA,Awasa Airport,7.06111111,38.4875
KAWA,KAWA,Lake Awasa,7.06666667,38.49055556
KAWK,KAWK,Wake Island Airfield,19.28,166.6402778
KAWK,KAWK,Wake Island Airfield,19.28,166.6402778
KAWK,KAWK,Wake Island Airfield,19.2825,166.6366667
KAWM,KAWM,West Memphis Municipal,35.135,-90.23444444
KAWR,KAWR,Awar Airport,-4.12416667,144.8702778
KAWX,KAWX,Andrews County,32.32944444,-102.5302778
KAWX,KAWX,Andrews County,32.33111111,-102.5294444
KAWX,KAWX,Andrews County,32.33083333,-102.5297222
KAWX,KAWX,Andrews County,32.33111111,-102.5294444
KAWX,KAWX,Andrews County,32.33083333,-102.5297222
KAWZ,KAWZ,Ahwaz Airport,31.33777778,48.75972222
KAWZ,KAWZ,Ahwaz Airport,31.3375,48.76194444
KAXA,KAXA,Wallblake,18.21027778,-63.0575
KAXA,KAXA,Clayton J. Lloyd International,18.21027778,-63.0575
KAXA,KAXA,Clayton J. Lloyd International,18.20472222,-63.05388889
KAXA,KAXA,Clayton J. Lloyd,18.20472222,-63.05388889
KAXA,KAXA,Clayton J Lloyd International,18.20472222,-63.05388889
KAXA,KAXA,Clayton J Lloyd,18.20472222,-63.05388889
KAXB,KAXB,Maxson Airfield,44.31666667,-75.89972222
KAXC,KAXC,Aramac Airport,-22.95805556,145.2425
KAXC,KAXC,Aramac Airport,-22.96666667,145.2416667
KAXC,KAXC,Aramac Airport,-22.96333333,145.2533333
KAXC,KAXC,Aramac Airport,-22.96333333,145.2516667
KAXC,KAXC,Aramac Airport,-22.96666667,145.2416667
KAXC,KAXC,Aramac Airport,-22.96333333,145.2516667
KAXD,KAXD,Dimokritos,40.85555556,25.95
KAXD,KAXD,Dimokritos,40.85583333,25.95638889
KAXD,KAXD,Dimokritos,40.85583333,25.95611111
KAXD,KAXD,Dimokritos,40.85583333,25.95638889
KAXD,KAXD,Dimokritos,40.85583333,25.95611111
KAXM,KAXM,El Eden,4.45638889,-75.76805556
KAXM,KAXM,El Eden,4.45166667,-75.76611111
KAXM,KAXM,El Eden,4.45083333,-75.76666667
KAXM,KAXM,El Eden,4.45166667,-75.76611111
KAXM,KAXM,El Eden,4.45083333,-75.76666667
KAXN,KAXN,Chandler Field,45.86722222,-95.39416667
KAXN,KAXN,Chandler Field,45.86638889,-95.39472222
KAXP,KAXP,Spring Point Airport,22.44194444,-73.97055556
KAXP,KAXP,Spring Point Airport,22.44194444,-73.97083333
KAXP,KAXP,Spring Point Airport,22.44194444,-73.97055556
KAXP,KAXP,Spring Point Airport,22.44194444,-73.97083333
KAXP,KAXP,Spring Point Airport,22.44194444,-73.97055556
KAXS,KAXS,Altus Municipal,34.69805556,-99.33805556
KAXS,KAXS,Altus/Quartz Mountain Regional,34.69888889,-99.33833333
KAXT,KAXT,Akita Airport,39.61555556,140.2186111
KAXU,KAXU,Axum Airport,14.12083333,38.71666667
KAXU,KAXU,Axum Airport,14.14694444,38.77138889
KAXU,KAXU,Axum Airport,14.14694444,38.7725
KAXU,KAXU,Axum Atse Yohannes IV,14.14694444,38.7725
KAXU,KAXU,Axum Airport,14.14694444,38.77138889
KAXU,KAXU,Axum Atse Yohannes IV,14.14694444,38.7725
KAXV,KAXV,Neil Armstrong,40.49333333,-84.29888889
KAXV,KAXV,Neil Armstrong,40.49361111,-84.29805556
KAXX,KAXX,Angel Fire,36.42055556,-105.2894444
KAXX,KAXX,Angel Fire,36.42194444,-105.29
KAYL,KAYL,Anthony Lagoon Airport,-18.01666667,135.55
KAYP,KAYP,Ayacucho Airport,-13.13333333,-74.2
KAYP,KAYP,Coronel FAP Alfredo Mendivil Duarte,-13.15472222,-74.20444444
KAYQ,KAYQ,Ayers Rock Connellan,-25.18611111,130.9755556
KAYR,KAYR,Ayr Airport,-19.59666667,147.3244444
KAYR,KAYR,Ayr Airport,-19.58444444,147.3291667
KAYR,KAYR,Ayr Airport,-19.59666667,147.325
KAYR,KAYR,Ayr Airport,-19.58444444,147.3291667
KAYR,KAYR,Ayr Airport,-19.59666667,147.325
KAYR,KAYR,Ayr Airport,-19.59305556,147.3241667
KAYS,KAYS,Waycross Ga,31.24916667,-82.39555556
KAYS,KAYS,Waycross-Ware County,31.24861111,-82.39666667
KAYS,KAYS,Waycross-Ware County,31.24833333,-82.39527778
KAYT,KAYT,Antalya Airport,36.90555556,30.79055556
KAYT,KAYT,Antalya Airport,36.89861111,30.80055556
KAYT,KAYT,Antalya Airport,36.89972222,30.7975
KAYW,KAYW,Ayawasi Airport,-1.14166667,132.4783333
KAYW,KAYW,Ayawasi Airport,-1.15972222,132.4633333
KAYW,KAYW,Ayawasi Airport,-1.15972222,132.4641667
KAZ1,KAZ1,Valle,35.65083333,-112.1480556
KAZ1,KAZ1,Valle,35.65055556,-112.1480556
KAZ2,KAZ2,H. A. Clark Memorial Field,35.30222222,-112.1941667
KAZ2,KAZ2,H. A. Clark Memorial Field,35.30555556,-112.1944444
KAZ3,KAZ3,Glendale Municipal,33.52722222,-112.2952778
KAZ3,KAZ3,Glendale Municipal,33.52694444,-112.2952778
KDQF,KDQF,Williams Gateway,33.30777778,-111.6555556
KAZA,KAZA,Phoenix - Mesa Gateway,33.30777778,-111.6555556
KAZD,KAZD,Yazd Airport,31.89777778,54.28166667
KAZD,KAZD,Yazd Shahid Sadooghi,31.905,54.27638889
KAZD,KAZD,Shahid Sadooghi,31.905,54.27638889
KAZD,KAZD,Yazd Shahid Sadooghi,31.905,54.27638889
KAZD,KAZD,Shahid Sadooghi,31.905,54.27638889
KAZD,KAZD,Shahid Sadooghi International,31.905,54.27638889
KAZG,KAZG,Pablo L. Sidar,19.09361111,-102.3936111
KAZO,KAZO,Kalamazoo/Battle Creek International,42.23638889,-85.55361111
KAZO,KAZO,Kalamazoo/Battle Creek International,42.23444444,-85.55166667
KAZS,KAZS,Samana El Catey International,19.26666667,-69.75
KAZS,KAZS,El Catey International,19.26944444,-69.73694444
KB19,KB19,Biddeford Municipal,43.46416667,-70.4725
KB21,KB21,Sugarloaf Regional,45.08611111,-70.21611111
KB21,KB21,Sugarloaf Regional,45.08527778,-70.21638889
KB21,KB21,Sugarloaf Regional,45.08555556,-70.21638889
KB21,KB21,Sugarloaf Regional,45.08527778,-70.21638889
KB21,KB21,Sugarloaf Regional,45.08555556,-70.21638889
KBAA,KBAA,Bialla Airport,-5.31666667,151.0333333
KBAA,KBAA,Bialla Airport,-5.33055556,151.0080556
KBAB,KBAB,Beale AFB,39.13611111,-121.4355556
KBAB,KBAB,Beale AFB,39.13611111,-121.4366667
KBAC,KBAC,Barranca de Upia Airport,4.56916667,-72.96722222
KBAD,KBAD,Barksdale AFB,32.50166667,-93.6625
KBAD,KBAD,Barksdale AFB,32.50194444,-93.66277778
KBAD,KBAD,Barksdale AFB,32.50194444,-93.6625
KBAD,KBAD,Barksdale AFB,32.50194444,-93.66277778
KBAD,KBAD,Barksdale AFB,32.50194444,-93.6625
KBAE,KBAE,Barcelonnette Airport,44.38333333,6.63333333
KBAF,KBAF,Barnes Municipal,42.16,-72.71638889
KBAF,KBAF,Barnes Municipal,42.15805556,-72.71583333
KBAF,KBAF,Westfield Barnes Regional,42.15805556,-72.71583333
KBAF,KBAF,Barnes Municipal,42.15805556,-72.71583333
KBAF,KBAF,Westfield Barnes Regional,42.15805556,-72.71583333
KBAG,KBAG,Baguio Airport,16.37666667,120.6177778
KBAG,KBAG,Baguio Airport,16.375,120.6197222
KBAG,KBAG,Baguio Airport,16.375,120.6188889
KBAG,KBAG,Baguio Airport,16.375,120.6197222
KBAG,KBAG,Baguio Airport,16.375,120.6188889
KBAH,KBAH,Bahrain International,26.27083333,50.6375
KBAH,KBAH,Bahrain International,26.26805556,50.63694444
KBAH,KBAH,Bahrain International,26.27083333,50.63361111
KBAH,KBAH,Bahrain International,26.26805556,50.63694444
KBAH,KBAH,Bahrain International,26.27083333,50.63361111
KBAI,KBAI,Buenos Aires Airport,9.16583333,-83.3325
KBAI,KBAI,Buenos Aires Airport,9.16361111,-83.33
KBAI,KBAI,Buenos Aires Airport,9.16333333,-83.33027778
KBAK,KBAK,Bina International,40.4675,50.04666667
KBAK,KBAK,Bina International,40.4675,50.04666667
KGYD,KGYD,Heydar Aliyev International,40.4675,50.04666667
KGYD,KGYD,Heydar Aliyev International,40.46972222,50.05166667
KGYD,KGYD,Heydar Aliyev International,40.47222222,50.04944444
KGYD,KGYD,Heydar Aliyev International,40.46972222,50.05166667
KGYD,KGYD,Heydar Aliyev International,40.47222222,50.04944444
KBAL,KBAL,Batman Airport,37.93166667,41.11888889
KBAL,KBAL,Batman Airport,37.92888889,41.11666667
KBAM,KBAM,Lander County,40.5975,-116.8722222
KBAM,KBAM,Battle Mountain Airport,40.59916667,-116.8744444
KBAO,KBAO,Udorn AB,17.38305556,102.8
KBAQ,KBAQ,Ernesto Cortissoz International,10.89611111,-74.77888889
KBAQ,KBAQ,Ernesto Cortissoz,10.88944444,-74.78055556
KBAQ,KBAQ,Ernesto Cortissoz,10.88972222,-74.78083333
KBAR,KBAR,Baker AAF,55.36666667,-133.6
KBAT,KBAT,Barth Airport,54.33888889,12.71138889
KBAU,KBAU,Bauru Airport,-22.345,-49.05388889
KBAU,KBAU,Bauru-Arealva,-22.15777778,-49.06833333
KBAU,KBAU,Bauru-Arealva,-22.16111111,-49.07
KBAV,KBAV,Baotou Airport,40.66666667,109.9833333
KBAV,KBAV,Baotou Airport,40.55944444,109.9983333
KBAX,KBAX,Barnaul Airport,53.36388889,83.54194444
KBAX,KBAX,Barnaul Airport,53.36333333,83.53972222
KBAX,KBAX,Barnaul Airport,53.36333333,83.53944444
KBAX,KBAX,Barnaul Airport,53.36333333,83.53972222
KBAX,KBAX,Mikhaylovka,53.36333333,83.53972222
KBAX,KBAX,Barnaul Airport,53.36333333,83.53972222
KBAX,KBAX,Mikhaylovka,53.36333333,83.53972222
KBAY,KBAY,Baia Mare Airport,47.65,23.46666667
KBAY,KBAY,Baia Mare Airport,47.65833333,23.46611111
KBAY,KBAY,Maramures,47.65833333,23.46611111
KBBA,KBBA,Balmaceda Airport,-45.91666667,-71.695
KBBA,KBBA,Balmaceda Airport,-45.91611111,-71.68944444
KBBC,KBBC,Bay City Municipal,28.97305556,-95.86333333
KBBC,KBBC,Bay City Municipal,28.97333333,-95.86333333
KBBC,KBBC,Bay City Regional,28.97333333,-95.86333333
KBBC,KBBC,Bay City Municipal,28.97333333,-95.86333333
KBBC,KBBC,Bay City Regional,28.97333333,-95.86333333
KBBF,KBBF,N Eng Heliport,42.50833333,-71.18333333
KBBI,KBBI,Bhubaneswar Airport,20.24361111,85.82
KBBI,KBBI,Bhubaneswar Airport,20.24444444,85.81777778
KBBO,KBBO,Berbera International,10.39166667,44.95
KBBO,KBBO,Berbera International,10.38916667,44.94111111
KBBO,KBBO,Berbera International,10.38916667,44.94138889
KBBO,KBBO,Berbera International,10.38916667,44.94111111
KBBO,KBBO,Berbera International,10.38916667,44.94138889
KBBQ,KBBQ,Cocoa Point,17.55555556,-61.765
KBBQ,KBBQ,Cocoa Point,17.55555556,-61.765
KBBR,KBBR,Baillif,16.01611111,-61.73888889
KBBR,KBBR,Baillif,16.01333333,-61.74222222
KBBR,KBBR,Baillif,16.01361111,-61.74305556
KBBR,KBBR,Baillif,16.01333333,-61.74222222
KBBR,KBBR,Baillif,16.01361111,-61.74305556
KBBS,KBBS,Blackbushe Airport,51.32444444,-0.84055556
KBBS,KBBS,Blackbushe Airport,51.32388889,-0.8475
KBBS,KBBS,Blackbushe Airport,51.32388889,-0.84777778
KBBT,KBBT,Berberati Airport,4.21916667,15.78805556
KBBT,KBBT,Berberati Airport,4.22138889,15.78638889
KBBT,KBBT,Berberati Airport,4.22166667,15.78638889
KBBT,KBBT,Berberati Airport,4.22138889,15.78638889
KBBT,KBBT,Berberati Airport,4.22166667,15.78638889
KBBU,KBBU,Baneasa,44.5,26.1
KBBU,KBBU,Aurel Vlaicu,44.50333333,26.10277778
KBBU,KBBU,Baneasa Aurel Vlaicu,44.50333333,26.10277778
KBBU,KBBU,Aurel Vlaicu,44.50333333,26.10277778
KBBU,KBBU,Baneasa Aurel Vlaicu,44.50333333,26.10277778
KBBX,KBBX,Blue Bell Airport,40.13666667,-75.2675
KBBX,KBBX,Wings Field,40.13666667,-75.2675
KBBX,KBBX,Wings Field,40.1375,-75.26527778
KBBY,KBBY,Bambari Airport,5.84583333,20.64972222
KBBY,KBBY,Bambari Airport,5.84583333,20.64972222
KBBY,KBBY,Bambari Airport,5.84694444,20.64972222
KBBZ,KBBZ,Zambezi Airport,-13.53722222,23.11
KBBZ,KBBZ,Zambezi Airport,-13.5375,23.10777778
KBCA,KBCA,Gustavo Rizo,20.36444444,-74.50638889
KBCA,KBCA,Gustavo Rizo,20.36527778,-74.50611111
KBCB,KBCB,Virginia Tech/Montgomery Executive,37.20722222,-80.40694444
KBCB,KBCB,Virginia Tech/Montgomery Executive,37.20777778,-80.40777778
KBCC,KBCC,Bear Creek Airport,57.6175,-155.8672222
KBCD,KBCD,Bacolod Airport,10.6425,122.9297222
KBCE,KBCE,Bryce Canyon Airport,37.70638889,-112.1447222
KBCE,KBCE,Bryce Canyon Airport,37.70638889,-112.1458333
KBCH,KBCH,Baucau Airport,-8.49305556,126.4005556
KBCH,KBCH,Cakung,-8.49305556,126.4005556
KBCH,KBCH,Cakung,-8.48555556,126.3994444
KBCI,KBCI,Barcaldine Airport,-23.55916667,145.3019444
KBCI,KBCI,Barcaldine Airport,-23.56527778,145.3066667
KBCJ,KBCJ,Baca Grande,37.96666667,-105.7666667
KBCL,KBCL,Barra del Colorado Airport,10.76777778,-83.58583333
KBCL,KBCL,Barra del Colorado Airport,10.76861111,-83.58555556
KBCM,KBCM,Bacau Airport,46.59861111,26.88194444
KBCM,KBCM,Bacau Airport,46.52194444,26.91027778
KBCM,KBCM,George Enescu Bacau International,46.52194444,26.91027778
KBCM,KBCM,Bacau Airport,46.52194444,26.91027778
KBCM,KBCM,George Enescu Bacau International,46.52194444,26.91027778
KBCN,KBCN,Barcelona Airport,41.30277778,2.09444444
KBCN,KBCN,Barcelona Airport,41.29694444,2.07833333
KBCN,KBCN,Barcelona-El Prat,41.29694444,2.07833333
KBCN,KBCN,Barcelona Airport,41.29694444,2.07833333
KBCN,KBCN,Barcelona El Prat,41.29694444,2.07833333
KBCN,KBCN,Barcelona Airport,41.29694444,2.07833333
KBCN,KBCN,Barcelona Airport,41.295,2.08777778
KBCS,KBCS,Southern Seaplane,29.86611111,-90.02222222
KBCT,KBCT,Boca Raton Public,26.37083333,-80.10833333
KBCY,KBCY,Bulchi Airport,6.29222222,36.88722222
KBDA,KBDA,Bermuda NAS Kindley Field,32.36333333,-64.67805556
KBDA,KBDA,Bermuda International,32.36416667,-64.67861111
KBDA,KBDA,L. F. Wade International,32.36416667,-64.67861111
KBDB,KBDB,Bundaberg Airport,-24.90583333,152.3208333
KBDB,KBDB,Bundaberg Airport,-24.90388889,152.3186111
KBDE,KBDE,Baudette International,48.72083333,-94.6
KBDE,KBDE,Baudette International,48.72833333,-94.61222222
KBDE,KBDE,Baudette International,48.73027778,-94.61111111
KBDG,KBDG,Blanding Municipal,37.58277778,-109.4825
KBDG,KBDG,Blanding Municipal,37.58333333,-109.4833333
KBDH,KBDH,Bandar Lengeh Airport,26.53138889,54.82361111
KBDH,KBDH,Bandar Lengeh Airport,26.53222222,54.82472222
KBDI,KBDI,Bird Island Airport,-3.72416667,55.20527778
KBDI,KBDI,Bird Island Airport,-3.72416667,55.20555556
KBDJ,KBDJ,Syamsudin Noor,-3.44222222,114.7627778
KBDK,KBDK,Bondoukou/Soko,8.01833333,-2.75833333
KBDK,KBDK,Bondoukou/Soko,8.01777778,-2.76222222
KBDK,KBDK,Bondoukou/Soko,8.0175,-2.76222222
KBDK,KBDK,Bondoukou/Soko,8.01777778,-2.76222222
KBDK,KBDK,Bondoukou/Soko,8.0175,-2.76222222
KBDL,KBDL,Bradley International,41.93861111,-72.68333333
KBDL,KBDL,Bradley International,41.9375,-72.68305556
KBDL,KBDL,Bradley International,41.93888889,-72.68333333
KBDL,KBDL,Bradley International,41.93916667,-72.68333333
KBDL,KBDL,Bradley International,41.93888889,-72.68333333
KBDL,KBDL,Bradley International,41.93916667,-72.68333333
KBDM,KBDM,Bandirma Airport,40.31833333,27.97722222
KBDM,KBDM,Bandirma Airport,40.31805556,27.9775
KBDM,KBDM,Bandirma Airport,40.31805556,27.97777778
KBDM,KBDM,Bandirma Airport,40.31805556,27.9775
KBDM,KBDM,Bandirma Airport,40.31805556,27.97777778
KBDN,KBDN,Talhar,24.84166667,68.83888889
KBDN,KBDN,Talhar,24.84194444,68.83833333
KBDO,KBDO,Husein Sastranegara,-6.90166667,107.5758333
KBDO,KBDO,Husein Sastranegara,-6.90055556,107.5763889
KBDO,KBDO,Husein Sastranegara,-6.90194444,107.575
KBDO,KBDO,Husein Sastranegara,-6.90055556,107.5763889
KBDO,KBDO,Husein Sastranegara,-6.90194444,107.575
KBDO,KBDO,Husein Sastranegara,-6.90055556,107.5733333
KBDP,KBDP,Chandragadhi,26.57166667,88.08
KBDP,KBDP,Chandragadhi,26.57083333,88.07888889
KBDQ,KBDQ,Baroda Airport,22.32916667,73.22083333
KBDQ,KBDQ,Vadodara Airport,22.32916667,73.22083333
KBDQ,KBDQ,Vadodara Airport,22.33611111,73.22638889
KBDR,KBDR,Igor I Sikorsky Memorial,41.16416667,-73.12444444
KBDR,KBDR,Igor I Sikorsky Memorial,41.16333333,-73.12611111
KBDS,KBDS,Brindisi/Casale,40.65805556,17.94666667
KBDS,KBDS,Casale,40.65833333,17.94694444
KBDS,KBDS,Brindisi Airport,40.65833333,17.94694444
KBDU,KBDU,Bardufoss Airport,69.05611111,18.54
KBDU,KBDU,Bardufoss Airport,69.05583333,18.54027778
KBDU,KBDU,Bardufoss Airport,69.05583333,18.53888889
KBDU,KBDU,Bardufoss Airport,69.05583333,18.54027778
KBDU,KBDU,Bardufoss Airport,69.05583333,18.53888889
KBDY,KBDY,Bandon State,43.0875,-124.4083333
KBDY,KBDY,Bandon State,43.08638889,-124.4077778
KBEB,KBEB,Benbecula Airport,57.48222222,-7.36472222
KBEB,KBEB,Benbecula Airport,57.48111111,-7.36277778
KBEB,KBEB,Benbecula Airport,57.48055556,-7.36388889
KBEB,KBEB,Benbecula Airport,57.48111111,-7.36305556
KBEB,KBEB,Benbecula Airport,57.48111111,-7.36277778
KBEB,KBEB,Benbecula Airport,57.48111111,-7.36305556
KBED,KBED,Laurence G Hanscom Field,42.47083333,-71.29
KBED,KBED,Laurence G Hanscom Field,42.47,-71.28916667
KBED,KBED,Laurence G Hanscom Field,42.47,-71.28888889
KBED,KBED,Laurence G Hanscom Field,42.47,-71.28916667
KBED,KBED,Laurence G Hanscom Field,42.47,-71.28888889
KBEF,KBEF,Bluefields International,11.99694444,-83.76861111
KBEF,KBEF,Bluefields International,11.99083333,-83.77416667
KBEF,KBEF,Bluefields Airport,11.99083333,-83.77416667
KBEF,KBEF,Bluefields International,11.99083333,-83.77416667
KBEF,KBEF,Bluefields Airport,11.99083333,-83.77416667
KBEG,KBEG,Belgrade International,44.81916667,20.31222222
KBEG,KBEG,Belgrade International,44.81916667,20.31222222
KBEG,KBEG,Beograd,44.81833333,20.31305556
KBEG,KBEG,Beograd,44.81833333,20.31305556
KBEG,KBEG,Belgrade Nikola Tesla,44.81833333,20.31305556
KBEG,KBEG,Beograd,44.81833333,20.30916667
KBEH,KBEH,Ross Field,42.12777778,-86.42833333
KBEH,KBEH,Southwest Michigan Regional,42.12861111,-86.42861111
KBEH,KBEH,Southwest Michigan Regional,42.12861111,-86.42611111
KBEH,KBEH,Southwest Michigan Regional,42.12861111,-86.42861111
KBEH,KBEH,Southwest Michigan Regional,42.12861111,-86.42611111
KBEH,KBEH,Southwest Michigan Regional,42.12833333,-86.425
KBEI,KBEI,Beica Airport,9.39166667,34.53333333
KBEI,KBEI,Beica Airport,9.39138889,34.51944444
KBEL,KBEL,Val de Cans International,-1.37888889,-48.47555556
KBEL,KBEL,Val de Cans International,-1.37916667,-48.47638889
KBEL,KBEL,Val de Cans International,-1.37916667,-48.47611111
KBEL,KBEL,Val de Cans International,-1.37916667,-48.47638889
KBEL,KBEL,Val de Cans International,-1.37916667,-48.47611111
KBEN,KBEN,Benina,32.09583333,20.275
KBEN,KBEN,Benina,32.09694444,20.26944444
KBEN,KBEN,Benina,32.09694444,20.26944444
KBEN,KBEN,Benina International,32.09694444,20.26944444
KBEN,KBEN,Benina,32.09694444,20.26944444
KBEN,KBEN,Benina International,32.09694444,20.26944444
KBEO,KBEO,Aeropelican,-33.06611111,151.6480556
KBEO,KBEO,Aeropelican,-33.06611111,151.6463889
KBEO,KBEO,Lake Macquarie,-33.06611111,151.6463889
KBEO,KBEO,Aeropelican,-33.06611111,151.6480556
KBEO,KBEO,Lake Macquarie,-33.06611111,151.6463889
KBEO,KBEO,Lake Macquarie,-33.06583333,151.6463889
KBER,KBER,Berlin Metropolitan Area,52.51166667,13.4025
KBER,KBER,Berlin Metropolitan Area,52.51166667,13.40138889
KBES,KBES,Brest/Guipavas,48.44722222,-4.42055556
KBES,KBES,Bretagne,48.44777778,-4.41861111
KBES,KBES,Brest Bretagne,48.44777778,-4.41861111
KBES,KBES,Brest Bretagne,48.44944444,-4.41833333
KBES,KBES,Bretagne,48.44777778,-4.41861111
KBES,KBES,Brest Bretagne,48.44944444,-4.41833333
KBES,KBES,Brest Bretagne,48.44944444,-4.41694444
KBET,KBET,Bethel Airport,60.78444444,-161.8313889
KBET,KBET,Bethel Airport,60.77861111,-161.8372222
KBEU,KBEU,Bedourie North,-24.23,139.445
KBEV,KBEV,Teyman,31.28333333,34.71666667
KBEV,KBEV,Teyman,31.28638889,34.7225
KBEV,KBEV,Teyman,31.28666667,34.72305556
KBEV,KBEV,Teyman,31.28638889,34.7225
KBEV,KBEV,Teyman,31.28666667,34.72305556
KBEW,KBEW,Beira Airport,-19.79444444,34.91194444
KBEW,KBEW,Beira Airport,-19.79638889,34.90777778
KBEY,KBEY,Beirut International,33.81277778,35.49027778
KBEY,KBEY,Rafic Hariri International,33.81805556,35.48388889
KBEY,KBEY,Rafic Hariri International,33.81916667,35.49
KBEY,KBEY,Rafic Hariri International,33.81805556,35.48388889
KBEY,KBEY,Rafic Hariri International,33.81916667,35.49
KBFB,KBFB,Blue Fox Bay Airport,58.18333333,-152.1333333
KBFD,KBFD,Bradford Regional,41.80222222,-78.63944444
KBFD,KBFD,Bradford Regional,41.80305556,-78.64
KBFF,KBFF,William B. Heilig Field,41.87527778,-103.6011111
KBFF,KBFF,Western Neb. Regional/William B. Heilig Field,41.87527778,-103.6011111
KBFF,KBFF,Western Neb. Regional/William B. Heilig Field,41.87416667,-103.5955556
KBFI,KBFI,King County Airport-Boeing Field,47.52888889,-122.2994444
KBFI,KBFI,Boeing Field/King County International,47.53,-122.3019444
KBFK,KBFK,Buckley Air National Guard Base,39.70166667,-104.7516667
KBFK,KBFK,Buckley AFB,39.70166667,-104.7516667
KBFL,KBFL,Meadows Field,35.43,-119.0522222
KBFL,KBFL,Meadows Field,35.43361111,-119.0566667
KBFL,KBFL,Meadows Field,35.43388889,-119.0577778
KBFM,KBFM,Mobile Aerospace,30.62638889,-88.06805556
KBFM,KBFM,Mobile Downtown,30.62666667,-88.06805556
KBFN,KBFN,Bloemfontein International,-29.09222222,26.30277778
KBFN,KBFN,Bloemfontein International,-29.09277778,26.3025
KBFN,KBFN,Bram Fischer International,-29.09277778,26.3025
KBFN,KBFN,Bloemfontein International,-29.09277778,26.3025
KBFN,KBFN,Bram Fischer International,-29.09277778,26.3025
KBFO,KBFO,Buffalo Range Airport,-21.00916667,31.57916667
KBFO,KBFO,Buffalo Range Airport,-21.00916667,31.57916667
KBFO,KBFO,Buffalo Range Airport,-21.00805556,31.57861111
KBFP,KBFP,Beaver County,40.77222222,-80.39111111
KBFP,KBFP,Beaver County,40.7725,-80.39138889
KBFQ,KBFQ,Bahia de Pinas Airport,7.58333333,-78.2
KBFR,KBFR,Virgil I Grissom Municipal,38.84,-86.44527778
KBFR,KBFR,Virgil I Grissom Municipal,38.84,-86.44527778
KBFS,KBFS,Belfast International (Aldergrove),54.65416667,-6.225
KBFS,KBFS,Aldergrove,54.6575,-6.21583333
KBFS,KBFS,Belfast Aldergrove,54.6575,-6.21583333
KBFS,KBFS,Aldergrove,54.6575,-6.21583333
KBFS,KBFS,Belfast Aldergrove,54.6575,-6.21583333
KBFT,KBFT,Beaufort County,32.41194444,-80.63472222
KBFT,KBFT,Beaufort County,32.41222222,-80.63444444
KBGA,KBGA,Palonegro,7.12611111,-73.18472222
KBGA,KBGA,Palonegro,7.12666667,-73.18472222
KBGA,KBGA,Palonegro,7.12611111,-73.18472222
KBGA,KBGA,Palonegro,7.12666667,-73.18472222
KBGA,KBGA,Palonegro,7.12638889,-73.18472222
KBGB,KBGB,Booue Airport,-0.10666667,11.93888889
KBGB,KBGB,Booue Airport,-0.1075,11.94361111
KBGD,KBGD,Hutchinson County,35.70083333,-101.3930556
KBGD,KBGD,Hutchinson County,35.70083333,-101.3936111
KBGE,KBGE,Decatur County Industrial Air Park,30.97166667,-84.6375
KBGE,KBGE,Decatur County Industrial Air Park,30.97166667,-84.63694444
KBGF,KBGF,Bangui-M'Poko,4.39611111,18.52027778
KBGF,KBGF,Bangui-M'Poko,4.39944444,18.51944444
KBGI,KBGI,Grantley Adams International,13.07222222,-59.49305556
KBGI,KBGI,Grantley Adams International,13.07472222,-59.4925
KBGI,KBGI,Grantley Adams International,13.07472222,-59.49222222
KBGI,KBGI,Grantley Adams International,13.07472222,-59.4925
KBGI,KBGI,Grantley Adams International,13.07472222,-59.49222222
KBGL,KBGL,Baglung Airport,28.21361111,83.66527778
KBGL,KBGL,Baglung Airport,28.21277778,83.66638889
KBGL,KBGL,Baglung Airport,28.21277778,83.66527778
KBGL,KBGL,Baglung Airport,28.21277778,83.66638889
KBGL,KBGL,Baglung Airport,28.21361111,83.66611111
KBGL,KBGL,Baglung Airport,28.21361111,83.66527778
KBGL,KBGL,Baglung Airport,28.21361111,83.66611111
KBGM,KBGM,Greater Binghamton/Edwin A. Link Field,42.20138889,-75.96916667
KBGM,KBGM,Greater Binghamton/Edwin A. Link Field,42.20861111,-75.97972222
KBGM,KBGM,Greater Binghamton/Edwin A. Link Field,42.20833333,-75.97972222
KBGM,KBGM,Greater Binghamton/Edwin A. Link Field,42.20861111,-75.97972222
KBGM,KBGM,Greater Binghamton/Edwin A. Link Field,42.20833333,-75.97972222
KBGN,KBGN,Bruggen Airport,51.20055556,6.13333333
KBGN,KBGN,Bruggen Airport,51.20055556,6.13333333
KBGN,KBGN,Bruggen Airport,51.19972222,6.13222222
KBGO,KBGO,Flesland,60.29361111,5.21944444
KBGO,KBGO,Flesland,60.29333333,5.21805556
KBGQ,KBGQ,Big Lake Airport,61.53583333,-149.8125
KBGQ,KBGQ,Big Lake Airport,61.53611111,-149.8138889
KBGQ,KBGQ,Big Lake Airport,61.53472222,-149.8125
KBGQ,KBGQ,Big Lake Airport,61.53611111,-149.8138889
KBGQ,KBGQ,Big Lake Airport,61.53472222,-149.8125
KBGR,KBGR,Bangor International,44.80777778,-68.82777778
KBGR,KBGR,Bangor International,44.8075,-68.82805556
KBGS,KBGS,Big Spring McMahon-Wrinkle,32.21444444,-101.525
KBGS,KBGS,Big Spring McMahon-Wrinkle,32.2125,-101.5216667
KBGT,KBGT,Bagdad Airport,34.59333333,-113.1708333
KBGT,KBGT,Bagdad Airport,34.59583333,-113.1702778
KBGT,KBGT,Bagdad Airport,34.59277778,-113.1719444
KBGT,KBGT,Bagdad Airport,34.59583333,-113.1702778
KBGT,KBGT,Bagdad Airport,34.59277778,-113.1719444
KBGU,KBGU,Bangassou Airport,4.78666667,22.78444444
KBGU,KBGU,Bangassou Airport,4.78666667,22.78444444
KBGU,KBGU,Bangassou Airport,4.78611111,22.7825
KBGU,KBGU,Bangassou Airport,4.78583333,22.7825
KBGW,KBGW,Muthanna,33.25555556,44.225
KBGW,KBGW,Al Muthana,33.33277778,44.36388889
KBGX,KBGX,Comandante Gustavo Kraemer,-31.39861111,-54.1125
KBGX,KBGX,Comandante Gustavo Kraemer,-31.39055556,-54.11222222
KBGX,KBGX,Comandante Gustavo Kraemer,-31.39055556,-54.11194444
KBGX,KBGX,Comandante Gustavo Kraemer,-31.39055556,-54.11222222
KBGX,KBGX,Comandante Gustavo Kraemer,-31.39055556,-54.11194444
KBGY,KBGY,Bergamo/Orio Al Serio,45.66833333,9.70027778
KBGY,KBGY,Bergamo Orio Al Serio,45.67388889,9.70416667
KBGY,KBGY,Bergamo Orio Al Serio,45.66888889,9.70416667
KBGY,KBGY,Bergamo Orio Al Serio,45.67388889,9.70416667
KBGY,KBGY,Bergamo Orio Al Serio,45.66888889,9.70416667
KBH1,KBH1,Isa AB,25.91833333,50.59055556
KBHB,KBHB,Hancock County-Bar Harbor,44.44888889,-68.36166667
KBHB,KBHB,Hancock County-Bar Harbor,44.44972222,-68.36166667
KBHB,KBHB,Hancock County-Bar Harbor,44.44972222,-68.36138889
KBHC,KBHC,Laughlin Bullhead International,35.16333333,-114.5644444
KIFP,KIFP,Laughlin/Bullhead International,35.16444444,-114.5652778
KIFP,KIFP,Laughlin/Bullhead International,35.15583333,-114.5594444
KIFP,KIFP,Laughlin/Bullhead International,35.15472222,-114.5594444
KIFP,KIFP,Laughlin/Bullhead International,35.15583333,-114.5594444
KIFP,KIFP,Laughlin/Bullhead International,35.15472222,-114.5594444
KBHD,KBHD,Belfast City,54.61722222,-5.87083333
KBHD,KBHD,Belfast City,54.61805556,-5.8725
KBHE,KBHE,Woodbourne,-41.51666667,173.8722222
KBHE,KBHE,Woodbourne,-41.51777778,173.8694444
KBHG,KBHG,Araslaya,15.73472222,-84.54333333
KBHG,KBHG,Araslaya,15.73555556,-84.5425
KBHG,KBHG,Araslaya,15.73555556,-84.54277778
KBHG,KBHG,Araslaya,15.73555556,-84.5425
KBHG,KBHG,Araslaya,15.73555556,-84.54277778
KBHH,KBHH,Bisha Airport,19.98611111,42.625
KBHH,KBHH,Bisha Airport,19.98416667,42.62305556
KBHI,KBHI,Comandante Espora Nab,-38.73055556,-62.15055556
KBHI,KBHI,Comandante Espora,-38.72555556,-62.16888889
KBHJ,KBHJ,Bhuj Airport,23.2875,69.67055556
KBHJ,KBHJ,Bhuj Airport,23.28777778,69.67027778
KBHJ,KBHJ,Bhuj Airport,23.28805556,69.67027778
KBHJ,KBHJ,Bhuj Airport,23.28777778,69.67027778
KBHJ,KBHJ,Bhuj Airport,23.28805556,69.67027778
KBHK,KBHK,Bukhara Airport,39.76666667,64.48333333
KBHK,KBHK,Bukhara Airport,39.76666667,64.48333333
KBHK,KBHK,Bukhara Airport,39.77527778,64.48222222
KBHL,KBHL,Bahia de Los Angeles North,28.97555556,-113.5633333
KBHL,KBHL,Bahia de Los Angeles North,28.97666667,-113.5602778
KBHL,KBHL,Bahia de Los Angeles North,28.97555556,-113.5633333
KBHL,KBHL,Bahia de Los Angeles North,28.97666667,-113.5602778
KBHM,KBHM,Birmingham Airport,33.56305556,-86.75555556
KBHM,KBHM,Birmingham International,33.56305556,-86.75555556
KBHM,KBHM,Birmingham-Shuttlesworth International,33.56305556,-86.75555556
KBHM,KBHM,Birmingham-Shuttlesworth International,33.56388889,-86.75222222
KBHN,KBHN,Beihan Airport,14.78055556,45.71833333
KBHN,KBHN,Beihan Airport,14.78055556,45.71833333
KBHN,KBHN,Beihan Airport,14.78194444,45.72
KBHN,KBHN,Beihan Airport,14.78222222,45.71972222
KBHN,KBHN,Beihan Airport,14.78194444,45.72
KBHN,KBHN,Beihan Airport,14.78222222,45.71972222
KBHO,KBHO,Bhopal Airport,23.28472222,77.33861111
KBHO,KBHO,Raja Bhoj,23.28888889,77.33
KBHQ,KBHQ,Broken Hill Airport,-32.00166667,141.4666667
KBHQ,KBHQ,Broken Hill Airport,-32.00138889,141.4716667
KBHR,KBHR,Bharatpur Airport,27.67638889,84.4325
KBHR,KBHR,Bharatpur Airport,27.67722222,84.42861111
KBHR,KBHR,Bharatpur Airport,27.67694444,84.42833333
KBHR,KBHR,Bharatpur Airport,27.67722222,84.42861111
KBHR,KBHR,Bharatpur Airport,27.67694444,84.42833333
KBHS,KBHS,Bathurst Airport,-33.41111111,149.6527778
KBHS,KBHS,Bathurst Airport,-33.40944444,149.6519444
KBHT,KBHT,Brighton Downs Airport,-23.35,141.55
KBHU,KBHU,Bhavnagar Airport,21.755,72.18444444
KBHU,KBHU,Bhavnagar Airport,21.75222222,72.18555556
KBHV,KBHV,Bahawalpur International,29.34444444,71.7125
KBHV,KBHV,Bahawalpur International,29.34805556,71.71805556
KBHV,KBHV,Bahawalpur International,29.34833333,71.71805556
KBHV,KBHV,Bahawalpur International,29.34694444,71.71138889
KBHV,KBHV,Bahawalpur International,29.34805556,71.71805556
KBHV,KBHV,Bahawalpur International,29.34694444,71.71138889
KBHX,KBHX,Birmingham Airport,52.45305556,-1.74638889
KBHX,KBHX,Birmingham Airport,52.45388889,-1.74805556
KBHX,KBHX,Birmingham Airport,52.45416667,-1.74861111
KBHX,KBHX,Birmingham Airport,52.45388889,-1.74805556
KBHX,KBHX,Birmingham Airport,52.45416667,-1.74861111
KBHY,KBHY,Beihai Airport,21.53944444,109.2938889
KBHZ,KBHZ,Belo Horizonte Metropolitan Area,-19.91666667,-43.93333333
KBIA,KBIA,Bastia/Poretta,42.54916667,9.48611111
KBIA,KBIA,Poretta,42.55,9.48472222
KBIA,KBIA,Poretta,42.5525,9.48361111
KBIA,KBIA,Bastia Poretta,42.5525,9.48361111
KBIA,KBIA,Poretta,42.55,9.48472222
KBIA,KBIA,Bastia Poretta,42.5525,9.48361111
KBIC,KBIC,Big Creek Airport,57.66666667,-157.5833333
KBID,KBID,Block Island State,41.16666667,-71.57916667
KBID,KBID,Block Island State,41.16805556,-71.57777778
KBIE,KBIE,Beatrice Municipal,40.29888889,-96.75333333
KBIE,KBIE,Beatrice Municipal,40.30138889,-96.75416667
KBIF,KBIF,Biggs AAF,31.84944444,-106.3794444
KBIF,KBIF,Biggs AAF,31.84944444,-106.38
KBIG,KBIG,Allen AAF,63.99361111,-145.7188889
KBIG,KBIG,Allen AAF,63.99472222,-145.7202778
KBIH,KBIH,Eastern Sierra Regional,37.37333333,-118.365
KBIH,KBIH,Eastern Sierra Regional,37.37305556,-118.3636111
KBIH,KBIH,Bishop Airport,37.37305556,-118.3636111
KBIH,KBIH,Eastern Sierra Regional,37.37305556,-118.3636111
KBIH,KBIH,Bishop Airport,37.37305556,-118.3636111
KBII,KBII,Bikini Atoll Airport,11.52166667,165.5644444
KBIK,KBIK,Manuhua,-1.18666667,136.0855556
KBIL,KBIL,Billings Logan International,45.80694444,-108.5427778
KBIL,KBIL,Billings Logan International,45.80777778,-108.5427778
KBIL,KBIL,Billings Logan International,45.80777778,-108.5436111
KBIM,KBIM,Bimini International,25.69944444,-79.26555556
KBIN,KBIN,Bamyan Airport,34.80416667,67.82361111
KBIN,KBIN,Bamyan Airport,34.80944444,67.81888889
KBIO,KBIO,Bilbao Airport,43.30277778,-2.92166667
KBIO,KBIO,Bilbao Airport,43.30111111,-2.91055556
KBIP,KBIP,Bulimba Airport,-16.88305556,143.4813889
KBIQ,KBIQ,Anglet,43.46861111,-1.5225
KBIQ,KBIQ,Anglet,43.46833333,-1.52333333
KBIQ,KBIQ,Biarritz Bayonne Anglet,43.46833333,-1.52333333
KBIQ,KBIQ,Biarritz Pays Basque,43.46833333,-1.52333333
KBIQ,KBIQ,Anglet,43.46833333,-1.52333333
KBIQ,KBIQ,Biarritz Pays Basque,43.46833333,-1.52333333
KBIR,KBIR,Biratnagar Airport,26.43472222,87.28333333
KBIR,KBIR,Biratnagar Airport,26.48138889,87.26416667
KBIR,KBIR,Biratnagar Airport,26.48222222,87.26361111
KBIR,KBIR,Biratnagar Airport,26.48138889,87.26416667
KBIR,KBIR,Biratnagar Airport,26.48222222,87.26361111
KBIS,KBIS,Bismarck Municipal,46.77888889,-100.7525
KBIS,KBIS,Bismarck Municipal,46.77277778,-100.7458333
KBIV,KBIV,Bria Airport,6.52805556,21.98861111
KBIV,KBIV,Bria Airport,6.52833333,21.98888889
KBIX,KBIX,Keesler AFB,30.41111111,-88.92361111
KBIX,KBIX,Keesler AFB,30.41055556,-88.92444444
KBJC,KBJC,Rocky Mountain Metropolitan,39.90888889,-105.1172222
KBJC,KBJC,Rocky Mountain Metro,39.90888889,-105.1172222
KBJC,KBJC,Rocky Mountain Metropolitan,39.90888889,-105.1172222
KBJC,KBJC,Rocky Mountain Metro,39.90888889,-105.1172222
KBJI,KBJI,Bemidji Municipal,47.50972222,-94.93472222
KBJI,KBJI,Bemidji/Beltrami County,47.50944444,-94.93361111
KBJI,KBJI,Bemidji Regional,47.50944444,-94.93361111
KBJI,KBJI,Bemidji Regional,47.51083333,-94.93472222
KBJJ,KBJJ,Wayne County,40.87472222,-81.88694444
KBJJ,KBJJ,Wayne County,40.87472222,-81.88666667
KBJJ,KBJJ,Wayne County,40.87472222,-81.88833333
KBJL,KBJL,Banjul International,13.33722222,-16.65444444
KBJL,KBJL,Banjul International,13.33777778,-16.65222222
KBJM,KBJM,Bujumbura International,-3.33166667,29.32083333
KBJM,KBJM,Bujumbura International,-3.32388889,29.31861111
KBJR,KBJR,Bahir Dar Airport,11.59027778,37.38472222
KBJR,KBJR,Bahir Dar Airport,11.60833333,37.32166667
KBJR,KBJR,Bahir Dar Ginbot Haya International,11.60833333,37.32166667
KBJR,KBJR,Bahir Dar Airport,11.60833333,37.32166667
KBJR,KBJR,Bahir Dar Ginbot Haya International,11.60833333,37.32166667
KBJR,KBJR,Bahir Dar Ginbot Haya International,11.60611111,37.31944444
KBJU,KBJU,Bajura Airport,29.50194444,81.66861111
KBJU,KBJU,Bajura Airport,29.50361111,81.66833333
KBJU,KBJU,Bajura Airport,29.50277778,81.66861111
KBJU,KBJU,Bajura Airport,29.50305556,81.66833333
KBJU,KBJU,Bajura Airport,29.50194444,81.66861111
KBJU,KBJU,Bajura Airport,29.50305556,81.66833333
KBJV,KBJV,Imsik,37.14055556,27.66861111
KBJV,KBJV,Imsik,37.14,27.66944444
KBJX,KBJX,Guanajuato International,20.99138889,-101.48
KBJX,KBJX,Guanajuato International,20.99333333,-101.4808333
KBJZ,KBJZ,Badajoz Airport,38.89138889,-6.82138889
KBJZ,KBJZ,Talavera La Real,38.89111111,-6.82138889
KBJZ,KBJZ,Talavera La Real,38.89138889,-6.82138889
KBJZ,KBJZ,Badajoz Airport,38.89138889,-6.82138889
KBJZ,KBJZ,Talavera La Real,38.89111111,-6.82138889
KBJZ,KBJZ,Badajoz Airport,38.89138889,-6.82138889
KBKC,KBKC,Buckland Airport,65.97888889,-161.1266667
KBKC,KBKC,Buckland Airport,65.98166667,-161.1491667
KBKE,KBKE,Baker City Municipal,44.83833333,-117.81
KBKE,KBKE,Baker City Municipal,44.83722222,-117.8091667
KBKF,KBKF,Brooks Lake Airport,58.6,-156.2333333
KBKG,KBKG,Branson Airport,36.53194444,-93.20055556
KBKH,KBKH,Barking Sands Pacific Missile Range Facility,22.02166667,-159.7866667
KBKH,KBKH,Barking Sands PMRF,22.02277778,-159.785
KBKI,KBKI,Kota Kinabalu International,5.94083333,116.05
KBKI,KBKI,Kota Kinabalu International,5.93722222,116.0511111
KBKI,KBKI,Kota Kinabalu International,5.93388889,116.0497222
KBKI,KBKI,Kota Kinabalu International,5.93722222,116.0511111
KBKI,KBKI,Kota Kinabalu International,5.93388889,116.0497222
KBKK,KBKK,Bangkok International,13.91111111,100.6083333
KDMK,KDMK,Don Mueang International,13.9125,100.6066667
KBKL,KBKL,Lakefront,41.51694444,-81.68333333
KBKL,KBKL,Burke Lakefront,41.5175,-81.68333333
KBKL,KBKL,Burke Lakefront,41.51777778,-81.68277778
KBKL,KBKL,Burke Lakefront,41.5175,-81.68333333
KBKL,KBKL,Burke Lakefront,41.51777778,-81.68277778
KBKM,KBKM,Bakelalan Airport,3.985,115.62
KBKM,KBKM,Bakelalan Airport,3.97444444,115.6166667
KBKM,KBKM,Bakelalan Airport,3.97361111,115.6172222
KBKM,KBKM,Bakelalan Airport,3.97444444,115.6166667
KBKM,KBKM,Bakelalan Airport,3.97361111,115.6172222
KBKO,KBKO,Senou,12.53361111,-7.95
KBKO,KBKO,Senou,12.53611111,-7.94611111
KBKO,KBKO,Senou,12.53472222,-7.94805556
KBKO,KBKO,Senou,12.53777778,-7.94333333
KBKO,KBKO,Modibo Keita,12.53777778,-7.94333333
KBKO,KBKO,Senou,12.53361111,-7.95
KBKO,KBKO,Modibo Keita,12.53777778,-7.94333333
KBKQ,KBKQ,Blackall Airport,-24.43416667,145.4283333
KBKQ,KBKQ,Blackall Airport,-24.42777778,145.4286111
KBKS,KBKS,Padangkemiling,-3.86472222,102.3383333
KBKS,KBKS,Fatmawati Soekarno,-3.86388889,102.3391667
KBKS,KBKS,Fatmawati Soekarno,-3.86111111,102.3394444
KBKS,KBKS,Fatmawati Soekarno,-3.86388889,102.3391667
KBKS,KBKS,Fatmawati Soekarno,-3.86111111,102.3394444
KBKU,KBKU,Betioky Airport,-23.73222222,44.39111111
KBKU,KBKU,Betioky Airport,-23.73222222,44.39111111
KBKU,KBKU,Betioky Airport,-23.73305556,44.39027778
KBKU,KBKU,Betioky Airport,-23.73361111,44.39083333
KBKU,KBKU,Betioky Airport,-23.73305556,44.39027778
KBKU,KBKU,Betioky Airport,-23.73361111,44.39083333
KBKW,KBKW,Raleigh County Memorial,37.78194444,-81.12416667
KBKW,KBKW,Raleigh County Memorial,37.78722222,-81.12416667
KBKX,KBKX,Brookings Regional,44.30333333,-96.81111111
KBKX,KBKX,Brookings Regional,44.30472222,-96.81694444
KBKX,KBKX,Brookings Regional,44.30444444,-96.81888889
KBKX,KBKX,Brookings Regional,44.30472222,-96.81694444
KBKX,KBKX,Brookings Regional,44.30444444,-96.81888889
KBKY,KBKY,Bukavu Kavumu,-2.30888889,28.80888889
KBKZ,KBKZ,Bukoba Airport,-1.3,31.8
KBKZ,KBKZ,Bukoba Airport,-1.33083333,31.82
KBKZ,KBKZ,Bukoba Airport,-1.33138889,31.82055556
KBKZ,KBKZ,Bukoba Airport,-1.33083333,31.82
KBKZ,KBKZ,Bukoba Airport,-1.33138889,31.82055556
KBLA,KBLA,Campo Nuevo,10.10972222,-64.6875
KBLA,KBLA,General Jose Antonio Anzoategui International,10.11,-64.69055556
KBLA,KBLA,General Jose Antonio Anzoategui International,10.10722222,-64.68916667
KBLA,KBLA,General Jose Antonio Anzoategui International,10.11,-64.69055556
KBLA,KBLA,General Jose Antonio Anzoategui International,10.10722222,-64.68916667
KBLB,KBLB,Albrook AFB,8.97083333,-79.55638889
KBLC,KBLC,Bali Airport,5.89166667,10.025
KBLD,KBLD,Boulder City Municipal,35.9475,-114.8611111
KBLD,KBLD,Boulder City Municipal,35.94722222,-114.8602778
KBLD,KBLD,Boulder City Municipal,35.9475,-114.8613889
KBLD,KBLD,Boulder City Municipal,35.9475,-114.8611111
KBLD,KBLD,Boulder City Municipal,35.9475,-114.8613889
KBLD,KBLD,Boulder City Municipal,35.94722222,-114.8611111
KBLE,KBLE,Borlange Airport,60.42333333,15.51805556
KBLE,KBLE,Borlange Airport,60.42194444,15.51527778
KBLE,KBLE,Borlange Airport,60.42222222,15.51527778
KBLF,KBLF,Mercer County,37.29583333,-81.20805556
KBLF,KBLF,Mercer County,37.29583333,-81.20777778
KBLF,KBLF,Mercer County,37.29583333,-81.2075
KBLG,KBLG,Belaga Airport,2.64444444,113.7625
KBLG,KBLG,Belaga Airport,2.63611111,113.7605556
KBLH,KBLH,Blythe Airport,33.62083333,-114.7188889
KBLH,KBLH,Blythe Airport,33.61916667,-114.7169444
KBLI,KBLI,Bellingham International,48.79444444,-122.5347222
KBLI,KBLI,Bellingham International,48.79277778,-122.5375
KBLJ,KBLJ,Mostepha Ben Boulaid,35.75194444,6.30944444
KBLK,KBLK,Blackpool Airport,53.77194444,-3.03611111
KBLK,KBLK,Blackpool Airport,53.77138889,-3.02833333
KBLK,KBLK,Blackpool Airport,53.77166667,-3.02861111
KBLK,KBLK,Blackpool Airport,53.77138889,-3.02833333
KBLK,KBLK,Blackpool Airport,53.77166667,-3.02861111
KBLK,KBLK,Blackpool Airport,53.77194444,-3.03833333
KBLL,KBLL,Billund Airport,55.74027778,9.15277778
KBLL,KBLL,Billund Airport,55.74027778,9.15166667
KBLL,KBLL,Billund Airport,55.74055556,9.15694444
KBLM,KBLM,Monmouth Executive,40.18666667,-74.125
KBLM,KBLM,Monmouth Executive,40.18666667,-74.12444444
KBLO,KBLO,Blonduos/Hjaltabakki,65.64555556,-20.28666667
KBLO,KBLO,Blonduos Airport,65.645,-20.2875
KBLP,KBLP,Bellavista 1,-7.06416667,-76.58638889
KBLP,KBLP,Bellavista 1,-7.06027778,-76.58222222
KBLP,KBLP,Bellavista 1,-7.06416667,-76.58638889
KBLP,KBLP,Bellavista 1,-7.06027778,-76.58222222
KBLQ,KBLQ,Bologna/Borgo Panigale,44.53055556,11.2925
KBLQ,KBLQ,Bologna Airport,44.53555556,11.28861111
KBLR,KBLR,Bangalore Airport,12.94972222,77.66805556
KBLR,KBLR,Bengaluru International,13.19888889,77.70555556
KBLR,KBLR,Bangalore International,13.20694444,77.70444444
KBLR,KBLR,Kempegowda International,13.20694444,77.70444444
KBLR,KBLR,Bangalore International,13.20694444,77.70444444
KBLR,KBLR,Kempegowda International,13.20694444,77.70444444
KBLR,KBLR,Kempegowda International,13.19833333,77.70638889
KBLT,KBLT,Blackwater Airport,-23.6,148.8166667
KBLT,KBLT,Blackwater Airport,-23.60305556,148.8069444
KBLV,KBLV,Scott AFB,38.54277778,-89.85111111
KBLV,KBLV,Scott AFB/MidAmerica,38.54527778,-89.83527778
KBLZ,KBLZ,Chileka International,-15.67472222,34.97083333
KBLZ,KBLZ,Chileka International,-15.67888889,34.97388889
KBMA,KBMA,Bromma,59.35277778,17.94638889
KBMA,KBMA,Bromma,59.35444444,17.94166667
KBMA,KBMA,Bromma,59.35444444,17.94138889
KBMA,KBMA,Bromma,59.35444444,17.94166667
KBMB,KBMB,Bumba Airport,2.19,22.47333333
KBMB,KBMB,Bumba Airport,2.18333333,22.47972222
KBMB,KBMB,Bumba Airport,2.18333333,22.47944444
KBMC,KBMC,Brigham City Airport,41.54916667,-112.0622222
KBMC,KBMC,Brigham City Airport,41.5525,-112.0622222
KBMC,KBMC,Brigham City Airport,41.55444444,-112.0622222
KBMC,KBMC,Brigham City Airport,41.5525,-112.0622222
KBMC,KBMC,Brigham City Airport,41.55444444,-112.0622222
KBMC,KBMC,Brigham City Regional,41.55444444,-112.0622222
KBMD,KBMD,Belo Airport,-19.68666667,44.54222222
KBMD,KBMD,Belo Sur Tsiribihina,-19.68666667,44.54222222
KBMD,KBMD,Belo Sur Tsiribihina,-19.68666667,44.5425
KBME,KBME,Broome International,-17.95,122.23
KBME,KBME,Broome International,-17.94472222,122.2316667
KBME,KBME,Broome International,-17.94944444,122.2277778
KBME,KBME,Broome International,-17.94472222,122.2316667
KBME,KBME,Broome International,-17.94944444,122.2277778
KBMG,KBMG,Monroe County,39.14,-86.61472222
KBMG,KBMG,Monroe County,39.14,-86.61472222
KBMG,KBMG,Monroe County,39.14611111,-86.61666667
KBMH,KBMH,Bomai Airport,-6.37611111,144.6352778
KBMH,KBMH,Bomai Airport,-6.37472222,144.6355556
KBMH,KBMH,Bomai Airport,-6.37611111,144.6352778
KBMH,KBMH,Bomai Airport,-6.37472222,144.6355556
KBMI,KBMI,Central Illinois Regional,40.48194444,-88.9275
KBMI,KBMI,Central Illinois Regional,40.47722222,-88.91583333
KBMI,KBMI,Central Il Regional Airport at Bloomington,40.47722222,-88.91583333
KBMJ,KBMJ,Baramita Airport,7.37,-60.49
KBMJ,KBMJ,Baramita Airport,7.37083333,-60.48972222
KBMJ,KBMJ,Baramita Airport,7.37,-60.49
KBMJ,KBMJ,Baramita Airport,7.37083333,-60.48972222
KBML,KBML,Berlin Municipal,44.57472222,-71.17638889
KBML,KBML,Berlin Regional,44.57527778,-71.17583333
KBMM,KBMM,Bitam Airport,2.07583333,11.49083333
KBMM,KBMM,Bitam Airport,2.07722222,11.49222222
KBMO,KBMO,Bhamo Airport,24.27388889,97.25166667
KBMO,KBMO,Banmaw,24.27388889,97.25166667
KBMO,KBMO,Banmaw,24.27083333,97.24722222
KBMP,KBMP,Brampton Island Airport,-20.78333333,149.2333333
KBMP,KBMP,Brampton Island Airport,-20.80333333,149.27
KBMW,KBMW,Bordj Mokhtar,21.37527778,0.92722222
KBMW,KBMW,Bordj Mokhtar,21.3775,0.92583333
KBMW,KBMW,Bordj Mokhtar,21.37777778,0.92611111
KBMW,KBMW,Bordj Mokhtar,21.3775,0.92583333
KBMW,KBMW,Bordj Mokhtar,21.37777778,0.92611111
KBMW,KBMW,Bordj Mokhtar,21.37833333,0.93027778
KBMX,KBMX,Big Mountain AFS,59.36194444,-155.2566667
KBMX,KBMX,Big Mountain AFS,59.36111111,-155.2588889
KBNA,KBNA,Nashville International,36.12666667,-86.68194444
KBNA,KBNA,Nashville International,36.12444444,-86.67805556
KBNB,KBNB,Boende Airport,-0.23305556,20.87
KBNB,KBNB,Boende Airport,-0.28666667,20.88333333
KBND,KBND,Bandar Abbas International,27.22666667,56.37833333
KBND,KBND,Bandar Abbas International,27.21833333,56.37777778
KBNE,KBNE,Brisbane International,-27.425,153.0855556
KBNE,KBNE,Brisbane International,-27.38416667,153.1175
